PINCode,Name,District,State,Latitude,Longitude
110001,New Delhi G.P.O.,New Delhi,DELHI,28.6327426,77.2195969
110002,Indraprastha H.O,Central Delhi,DELHI,28.6352202,77.2468858
110003,Lodi Road H.O,South Delhi,DELHI,28.5916468,77.2317863
110004,Rashtrapati Bhawan S.O,Central Delhi,DELHI,28.6141527,77.1959622
110005,Karol Bagh S.O,Central Delhi,DELHI,28.6556793,77.1874601
110006,Delhi G.P.O.,North Delhi,DELHI,28.6610779,77.2345881
110007,Malka Ganj S.O,North Delhi,DELHI,28.6785828,77.191584
110008,Patel Nagar S.O (Central Delhi),Central Delhi,DELHI,28.6482162,77.1640718
110009,G.T.B.Nagar S.O,North West Delhi,DELHI,28.7108654,77.2031493
110010,Delhi Cantt S.O,South West Delhi,DELHI,28.5929297,77.1218197
110011,Nirman Bhawan S.O,Central Delhi,DELHI,28.604077,77.2116108
110012,I.A.R.I. S.O,Central Delhi,DELHI,28.6282145,77.1493904
110013,Hazrat Nizamuddin S.O,South Delhi,DELHI,28.5891197,77.2568426
110014,Jungpura S.O,South Delhi,DELHI,28.5792764,77.2584768
110015,Ramesh Nagar H.O,West Delhi,DELHI,28.6589251,77.1457614
110016,Hauz Khas S.O,South West Delhi,DELHI,28.5471702,77.2002745
110017,Malviya Nagar S.O (South Delhi),South Delhi,DELHI,28.5279118,77.2088987
110018,Tilak Nagar S.O (West Delhi),West Delhi,DELHI,28.6436082,77.0869837
110019,Kalkaji H.O,South Delhi,DELHI,28.5346916,77.2601742
110020,Okhla Industrial Estate S.O,South Delhi,DELHI,28.5388479,77.2753728
110021,Chanakya Puri S.O,South West Delhi,DELHI,28.5883628,77.1859069
110022,R K Puram Sect-5 S.O,South West Delhi,DELHI,28.564058,77.1736968
110023,Sarojini Nagar H.O,South West Delhi,DELHI,28.5748119,77.199129
110024,Lajpat Nagar (South Delhi) S.O,South Delhi,DELHI,28.5683786,77.2416464
110025,New Friends Colony S.O,South Delhi,DELHI,28.562147,77.285702
110026,Punjabi Bagh S.O,West Delhi,DELHI,28.6683157,77.1365404
110027,Tagore Garden S.O,West Delhi,DELHI,28.6464731,77.1169452
110028,Naraina Industrial Estate H.O,South West Delhi,DELHI,28.631833,77.1387588
110029,Safdarjung Enclave S.O,South West Delhi,DELHI,28.5647191,77.2003236
110030,Mehrauli S.O,South West Delhi,DELHI,28.4956835,77.1664945
110031,Gandhi Nagar S.O (East Delhi),East Delhi,DELHI,28.6508353,77.267595
110032,Shahdara S.O,East Delhi,DELHI,28.6865527,77.2922157
110033,N.S.Mandi S.O,North West Delhi,DELHI,28.7235555,77.1756757
110034,Saraswati Vihar S.O,North West Delhi,DELHI,28.6930443,77.1350949
110035,Onkar Nagar S.O,North West Delhi,DELHI,28.6738274,77.1642584
110036,Alipur S.O,North West Delhi,DELHI,28.8222004,77.1718134
110037,Gurgaon Road S.O,South West Delhi,DELHI,28.5441475,77.1159808
110038,A F Rajokari S.O,South West Delhi,DELHI,28.5132203,77.109319
110039,Bawana S.O,North West Delhi,DELHI,28.8001581,77.0354852
110040,Narela S.O,North West Delhi,DELHI,28.834898,77.0898784
110041,Nangloi S.O,West Delhi,DELHI,28.6696613,77.0568756
110042,Samai Pur S.O,North West Delhi,DELHI,28.7505846,77.1419808
110043,Najafgarh S.O,South West Delhi,DELHI,28.611665,76.978678
110044,Badarpur S.O (South Delhi),South Delhi,DELHI,28.5006897,77.3152116
110045,Palam Village S.O,South West Delhi,DELHI,28.5965884,77.082604
110046,Nangal Raya S.O,South West Delhi,DELHI,28.6040739,77.0979509
110047,Arjungarh S.O,South West Delhi,DELHI,28.4717584,77.1315321
110048,Greater Kailash S.O,South Delhi,DELHI,28.54786,77.2376414
110049,Andrewsganj S.O,South Delhi,DELHI,28.5623635,77.223073
110051,Krishna Nagar H.O,East Delhi,DELHI,28.6569035,77.2822923
110052,Ashok Vihar H.O,North West Delhi,DELHI,28.689477,77.1754088
110053,Seelampur S.O,East Delhi,DELHI,28.6756862,77.2596337
110054,Civil Lines S.O (North Delhi),North Delhi,DELHI,28.6903983,77.2275394
110055,Swami Ram Tirth Nagar S.O,Central Delhi,DELHI,28.645567,77.2110972
110056,Shakur Basti Depot S.O,North West Delhi,DELHI,28.6812362,77.1211068
110057,Vasant Vihar-1 S.O,South West Delhi,DELHI,28.5616397,77.1558839
110058,Janakpuri B-1 S.O,West Delhi,DELHI,28.6217426,77.0882695
110059,D. K. Mohan Garden S.O,West Delhi,DELHI,28.6217627,77.0558233
110060,Rajender Nagar S.O,Central Delhi,DELHI,28.6354261,77.1856762
110061,Bijwasan S.O,South West Delhi,DELHI,28.5350902,77.0565521
110062,Pushpa Bhawan S.O,South Delhi,DELHI,28.5099937,77.2354845
110063,Paschim Vihar S.O,West Delhi,DELHI,28.6698791,77.1069164
110064,Maya Puri S.O,South West Delhi,DELHI,28.6258689,77.1142577
110065,Sriniwaspuri S.O,South Delhi,DELHI,28.5678123,77.2616473
110066,R K Puram (Main) S.O,South West Delhi,DELHI,28.567447,77.1873371
110067,J.N.U. S.O,South West Delhi,DELHI,28.543301,77.1682675
110068,Ignou S.O,South West Delhi,DELHI,28.4820119,77.2170762
110069,Union Public Service Commission S.O,Central Delhi,DELHI,28.6096772,77.2279415
110070,Vasant Kunj S.O,South West Delhi,DELHI,28.5124389,77.1370115
110071,Chhawla S.O,South West Delhi,DELHI,28.5613397,77.0020877
110072,CRPF Jharoda Kalan S.O,South West Delhi,DELHI,28.6837776,76.9709282
110073,Ujwa S.O,South West Delhi,DELHI,28.5709305,76.9058293
110074,Chattarpur S.O,South West Delhi,DELHI,28.4550173,77.1837006
110075,Dwarka Sec-6 S.O,South West Delhi,DELHI,28.5899848,77.0443796
110076,Sarita Vihar S.O,South Delhi,DELHI,28.531953,77.2958536
110077,Raj Nagar - II S.O,South West Delhi,DELHI,28.5709904,77.0718408
110078,N.S.I.T. Dwarka S.O,South West Delhi,DELHI,28.6102254,77.0300594
110080,Sangam Vihar S.O,South Delhi,DELHI,28.4965582,77.2386309
110081,Kanjhawla S.O,North West Delhi,DELHI,28.7343765,77.0110492
110082,Khera Kalan S.O,North West Delhi,DELHI,28.7762372,77.1001626
110083,Mangolpuri N Block S.O,North West Delhi,DELHI,28.6925257,77.0884449
110084,Burari S.O,North Delhi,DELHI,28.7578821,77.199756
110085,Rohini Sector-7 S.O,North West Delhi,DELHI,28.7153451,77.1088008
110086,Sultanpuri C Block S.O,North West Delhi,DELHI,28.7019847,77.0788689
110087,Sunder Vihar S.O,West Delhi,DELHI,28.6703213,77.0857675
110088,Shalimar Bagh S.O (North West Delhi),North West Delhi,DELHI,28.7122105,77.1590304
110089,Rohini Sector 15 S.O,North West Delhi,DELHI,28.7358942,77.1286829
110090,Karawal Nagar S.O,East Delhi,DELHI,28.5488154,77.253805
110091,Patparganj S.O,East Delhi,DELHI,28.6078909,77.3054884
110092,Laxmi Nagar S.O (East Delhi),East Delhi,DELHI,28.6362211,77.2922332
110093,"Nand Nagri ""C"" S.O",East Delhi,DELHI,28.6974374,77.3156292
110094,Gokal Puri S.O,East Delhi,DELHI,28.7156702,77.277957
110095,Jhilmil H.O,East Delhi,DELHI,28.6761864,77.3159348
110096,Vasundhra Enclave S.O,East Delhi,DELHI,28.5953246,77.3118642
110097,Kapashera S.O.,South West Delhi,DELHI,28.5266528,77.0791514
121001,Faridabad NIT H.O,Faridabad,HARYANA,28.3899664,77.2979782
121002,Faridabad Sector 16a  S.O,Faridabad,HARYANA,28.419423,77.3668965
121003,Amarnagar S.O (Faridabad),Faridabad,HARYANA,28.4538607,77.3032742
121004,Ballabgarh S.O,Faridabad,HARYANA,28.2919383,77.355413
121005,Faridabad Sector 22 S.O,Faridabad,HARYANA,28.3700239,77.2692503
121006,Faridabad Sector 7 S.O,Faridabad,HARYANA,28.3733754,77.335314
121007,Escortsnagar Faridabad S.O,Faridabad,HARYANA,28.3889884,77.3180836
121008,Faridabad Sector 29 S.O,Faridabad,HARYANA,28.4349347,77.3180836
121009,Surajkund Faridabad S.O,Faridabad,HARYANA,28.4870386,77.2922332
121010,Nhpc Colony Faridabad S.O,Faridabad,HARYANA,28.4666747,77.2893606
121012,Sector-21D  S.O,Faridabad,HARYANA,28.4207405,77.2893606
121013,Sec-91 S.O,Faridabad,HARYANA,28.4868329,77.3351855
121101,Tigaon S.O,Faridabad,HARYANA,28.3799037,77.4357739
121102,Palwal S.O,Faridabad,HARYANA,28.1373319,77.4242972
121103,Hathin S.O,Faridabad,HARYANA,28.0446221,77.1715228
121105,Aurangabad S.O (Faridabad),Faridabad,HARYANA,28.0241268,77.3209555
121106,Hodal S.O,Faridabad,HARYANA,27.923692,77.355413
121107,Hassanpur S.O,Faridabad,HARYANA,27.9824927,77.4931403
122001,Gurgaon H.O,Gurgaon,HARYANA,28.4554726,77.0219019
122002,DLF QE S.O,Gurgaon,HARYANA,28.474679,77.1048978
122003,Gurgaon Sector 45 S.O,Gurgaon,HARYANA,28.4421257,77.0652025
122004,Narsinghpur S.O,Gurgaon,HARYANA,28.4051175,76.9758274
122005,Air Force S.O,Gurgaon,HARYANA,28.4362246,77.030539
122006,Railwary Road S.O,Gurgaon,HARYANA,28.4813712,76.9931074
122007,Industrial Estate S.O (Gurgaon),Gurgaon,HARYANA,28.471851,77.0578855
122008,DLF Ph-II S.O,Gurgaon,HARYANA,28.4929905,77.0724143
122009,Galleria DLF-IV S.O,Gurgaon,HARYANA,28.4641637,77.0823482
122010,DLF Ph-III S.O,Gurgaon,HARYANA,28.4859289,77.1057501
122011,Gurgaon Sector 56 S.O,Gurgaon,HARYANA,28.4258749,77.0976195
122015,Palam Road S.O,Gurgaon,HARYANA,28.4963709,77.0593246
122016,Industrial Complex Dundahera S.O,Gurgaon,HARYANA,28.5079338,77.0751538
122017,Palam Vihar S.O (Gurgaon),Gurgaon,HARYANA,28.5076558,77.02766
122018,Gurgaon South City II S.O,Gurgaon,HARYANA,28.4180814,77.0506896
122051,Nsg Camp Manesar S.O,Gurgaon,HARYANA,28.3484435,76.9239727
122052,IMT Manesar S.O,Gurgaon,HARYANA,28.3702789,76.9124465
122101,Badshahpur S.O,Gurgaon,HARYANA,28.3636532,77.0219019
122102,Bhondsi S.O,Gurgaon,HARYANA,28.3117677,77.0794705
122103,Sohna S.O,Gurgaon,HARYANA,28.1738838,77.0794705
122104,Ferozepur Jhirka S.O,Gurgaon,HARYANA,27.7464579,76.9412601
122105,Tauru S.O,Gurgaon,HARYANA,28.33967598,76.96809592
122107,Nuh S.O,Gurgaon,HARYANA,28.0775058,77.0334179
122108,Nagina S.O (Gurgaon),Gurgaon,HARYANA,27.9394584,77.0334179
122413,Bhorakalan S.O,Gurgaon,HARYANA,28.3043458,76.8836261
122414,Nanukalan S.O,Gurgaon,HARYANA,28.2701202,76.7682775
122502,Khalilpur S.O,Gurgaon,HARYANA,28.2713642,76.6643728
122503,Pataudi S.O,Gurgaon,HARYANA,28.3308988,76.8028933
122504,Haillymandi S.O,Gurgaon,HARYANA,28.384868,76.7682775
122505,Garhi Harsaru S.O,Gurgaon,HARYANA,28.4317042,76.8951551
122506,Farrukh Nagar S.O,Gurgaon,HARYANA,28.4330156,76.7913558
122508,Punhana S.O,Gurgaon,HARYANA,27.8604325,77.1715228
123001,Narnaul H.O,Mahendragarh,HARYANA,28.0318168,76.1088001
123021,Mandi Ateli S.O,Rewari,HARYANA,28.1377997,76.247912
123023,Nangal Chaudhry S.O,Mahendragarh,HARYANA,27.8893483,76.0623979
123024,Satnali S.O,Mahendragarh,HARYANA,28.3840617,75.9695465
123027,Kanina S.O,Mahendragarh,HARYANA,28.4075559,76.2178127
123028,Nangal Sirohi S.O,Mahendragarh,HARYANA,28.2152749,76.1088001
123029,Mohindergarh S.O,Mahendragarh,HARYANA,28.4097573,76.1745133
123034,Bawania S.O,Mahendragarh,HARYANA,28.2753857,76.247912
123035,Palhawas S.O,Rewari,HARYANA,28.3711702,76.6297189
123101,Khori S.O,Rewari,HARYANA,28.1990591,76.514138
123102,Kund S.O,Rewari,HARYANA,28.1851216,76.3753046
123103,Khol S.O,Rewari,HARYANA,28.2127284,76.4215988
123106,Dharuhera S.O,Rewari,HARYANA,28.1760065,76.745195
123110,Industrial Area Dharuhera S.O,Rewari,HARYANA,28.2296118,76.7942403
123301,Guriani S.O,Rewari,HARYANA,28.3642617,76.5603828
123302,Kosli S.O,Rewari,HARYANA,28.3985032,76.4447397
123303,Nahar S.O,Rewari,HARYANA,28.4120444,76.3521514
123401,Rewari S.O,Rewari,HARYANA,28.2621924,76.5719414
123411,Dahina S.O,Mahendragarh,HARYANA,28.2941725,76.4331698
123412,Dharan S.O,Mahendragarh,HARYANA,28.0882851,76.4967919
123501,Bawal S.O,Mahendragarh,HARYANA,28.0578522,76.5950555
124001,Rohtak H.O,Rohtak,HARYANA,28.9034473,76.5719414
124010,Police Training College Sunaria S.O,Rohtak,HARYANA,28.8459406,76.5401527
124021,Asthal Bohar S.O,Rohtak,HARYANA,28.867022,76.6643728
124022,Mokhra S.O,Rohtak,HARYANA,28.8767484,76.4215988
124102,Dujana S.O,Jhajjar,HARYANA,28.6713694,76.6528225
124103,Jhajjar S.O,Jhajjar,HARYANA,28.5877565,76.6181655
124104,Nehru College Jhajjar S.O,Jhajjar,HARYANA,28.5969602,76.7105632
124105,Badli S.O (Jhajjar),Jhajjar,HARYANA,28.5270089,76.8144298
124106,Matanhail S.O,Jhajjar,HARYANA,28.5817556,76.4447397
124107,Dighal S.O,Jhajjar,HARYANA,28.7629253,76.6528225
124108,Machrauli S.O,Jhajjar,HARYANA,28.4548686,76.6643728
124109,Dhakla S.O,Jhajjar,HARYANA,28.4410263,76.5257007
124111,Madina S.O,Rohtak,HARYANA,28.9759872,76.3868797
124112,Mehem S.O,Rohtak,HARYANA,29.0121012,76.2942507
124113,Kalanaur S.O (Rohtak),Rohtak,HARYANA,28.8058176,76.3984537
124141,Power Plant Jharli S.O,Rohtak,HARYANA,28.4882551,76.3695167
124142,Bahu S.O,Jhajjar,HARYANA,28.4732693,76.3347838
124146,Sahlawas S.O,Jhajjar,HARYANA,28.4924909,76.4678766
124201,Beri S.O,Jhajjar,HARYANA,28.7078796,76.5603828
124202,Dubaldhan S.O,Jhajjar,HARYANA,28.7064497,76.4331698
124303,Sanghi S.O,Rohtak,HARYANA,29.0121091,76.6297189
124401,Bhalaut S.O,Rohtak,HARYANA,28.9299641,76.7221082
124404,Hassangarh S.O,Jhajjar,HARYANA,28.831067,76.8201976
124406,Kansala S.O,Rohtak,HARYANA,28.8911244,76.7913558
124411,Anwal S.O,Rohtak,HARYANA,28.8357532,76.4678766
124412,Kahnaur S.O,Rohtak,HARYANA,28.7718469,76.514138
124501,Sampla S.O,Jhajjar,HARYANA,28.7847278,76.7567368
124504,Charra S.O,Jhajjar,HARYANA,28.6948707,76.7163359
124505,Assaudha S.O,Jhajjar,HARYANA,28.7526104,76.8951551
124506,Mandothi S.O,Jhajjar,HARYANA,28.7103137,76.8144298
124507,Bahadurgarh H.O,Jhajjar,HARYANA,28.6564595,76.8490328
124513,Nindana S.O,Rohtak,HARYANA,29.0141581,76.3695167
124514,Lakhan Majra S.O,Rohtak,HARYANA,29.0358382,76.5257007
125001,Hisar H.O,Hisar,HARYANA,29.049537,75.5742467
125004,Ha U Hisar S.O,Hisar,HARYANA,29.1406223,75.6789905
125005,Modle Town Hisar S.O,Hisar,HARYANA,29.125413,75.7487779
125006,Hisar Cantt S.O,Hisar,HARYANA,29.110152,75.8185314
125007,Azad Nagar Hisar S.O,Hisar,HARYANA,29.1235418,75.7051647
125011,B.S.F Hisar S.O,Hisar,HARYANA,29.2316435,75.6659016
125033,Hansi S.O,Hisar,HARYANA,29.0643749,75.9230976
125037,Nalwa S.O,Hisar,HARYANA,28.9531185,75.841775
125038,Khanda Kheri S.O,Hisar,HARYANA,29.1849219,76.2015572
125039,Narnaund S.O,Hisar,HARYANA,29.3118514,76.1088001
125042,Bass S.O,Hisar,HARYANA,29.093728,76.2015572
125044,Satroad Khurd S.O,Hisar,HARYANA,29.0670836,75.841775
125047,Agroha S.O,Hisar,HARYANA,29.3579842,75.6906241
125048,Badopal S.O,Fatehabad,HARYANA,29.4335541,75.5509602
125049,Sisai S.O (Hisar),Hisar,HARYANA,29.2060108,75.9695465
125050,Fatehabad S.O (Fatehabad),Fatehabad,HARYANA,29.4835524,75.3878525
125051,Rattia S.O,Fatehabad,HARYANA,29.6753855,75.4810786
125052,Mandi Adampur S.O,Hisar,HARYANA,29.2921019,75.5043761
125053,Bhattu Kalan S.O,Fatehabad,HARYANA,29.3622408,75.3178952
125054,Bahaudin S.O,Sirsa,HARYANA,29.5659239,75.2128996
125055,Sirsa H.O,Sirsa,HARYANA,29.4305507,74.9208772
125058,Ding S.O,Sirsa,HARYANA,29.4578181,75.2595731
125060,Sikander Pur S.O,Sirsa,HARYANA,29.5679711,75.1311874
125075,Siri Jiwan Nagar S.O,Sirsa,HARYANA,29.5590875,74.663464
125076,Rania S.O,Sirsa,HARYANA,29.6262558,74.8507131
125077,Odhan S.O,Sirsa,HARYANA,29.6823688,74.9442585
125078,Baragudha S.O,Sirsa,HARYANA,29.6985189,75.0844757
125101,Chautala S.O,Sirsa,HARYANA,29.7811731,74.5346103
125102,Ellenabad S.O,Sirsa,HARYANA,29.3978643,74.6400432
125103,Goriwala S.O,Sirsa,HARYANA,29.7708703,74.7337069
125104,Mandi Dabwali S.O,Sirsa,HARYANA,29.8810582,74.7102958
125106,Dharsul Kalan S.O,Fatehabad,HARYANA,29.6809741,75.737149
125110,Chopta Nathu Sari S.O,Sirsa,HARYANA,29.3412012,75.1311874
125111,Bhuna S.O,Fatehabad,HARYANA,29.5397219,75.6906241
125112,Pabra S.O,Hisar,HARYANA,29.413556,75.7836589
125113,Uklana Mandi S.O,Hisar,HARYANA,29.5145069,75.8766333
125120,Tohana Mandi S.O,Fatehabad,HARYANA,29.6507626,75.8766333
125121,Barwala S.O (Hisar),Hisar,HARYANA,29.362856,75.946324
125133,Jakhal Mandi S.O,Fatehabad,HARYANA,29.7767703,75.7836589
125201,Kalanwali S.O,Sirsa,HARYANA,29.8288899,75.0377502
126101,Julana S.O,Jind,HARYANA,29.1176923,76.4331698
126102,Jind H.O,Jind,HARYANA,29.2857394,76.2942507
126110,Dharthrath S.O,Jind,HARYANA,29.4038329,76.4447397
126111,Alewa S.O,Jind,HARYANA,29.4823276,76.4331698
126112,Safidon S.O,Jind,HARYANA,29.4102094,76.6181655
126113,Pillukhera S.O,Jind,HARYANA,29.3096168,76.5257007
126114,Shamlo Kalan S.O,Jind,HARYANA,29.2041673,76.3868797
126115,Uchana S.O,Jind,HARYANA,29.4581763,76.2015572
126116,Narwana S.O,Jind,HARYANA,29.6756695,76.1088001
126125,Naguran S.O,Jind,HARYANA,29.4625469,76.3521514
126152,Dhanoda Kalan S.O,Jind,HARYANA,29.5294636,76.01598
127021,Bhiwani H.O,Bhiwani,HARYANA,28.7693181,76.1551866
127022,Chiriya S.O,Bhiwani,HARYANA,28.5044544,76.247912
127025,Baund S.O,Bhiwani,HARYANA,28.755358,76.3521514
127026,Birhi Kalan S.O,Bhiwani,HARYANA,28.5918445,76.097201
127027,Chang S.O,Bhiwani,HARYANA,28.8600923,76.2594981
127028,Behl S.O,Bhiwani,HARYANA,28.6695395,75.6440842
127029,Kairu S.O,Bhiwani,HARYANA,28.6943882,75.8766333
127030,Jui Khurd S.O,Bhiwani,HARYANA,28.6127957,75.9695465
127031,Tigrana S.O,Bhiwani,HARYANA,28.8606871,76.1551866
127032,Bawani Khera S.O,Bhiwani,HARYANA,28.942285,76.0623979
127035,Jamalpur S.O (Bhiwani),Bhiwani,HARYANA,28.9731855,75.9230976
127040,Tosham S.O,Bhiwani,HARYANA,28.8770077,75.8766333
127041,Mundhal Khurd S.O,Bhiwani,HARYANA,28.9874453,76.1667807
127042,Sanwar S.O (Bhiwani),Bhiwani,HARYANA,28.7253625,76.2826675
127043,Rodhan S.O,Bhiwani,HARYANA,28.7708381,75.737149
127045,Barwa S.O,Bhiwani,HARYANA,28.9508443,75.6091696
127046,Siwani S.O,Bhiwani,HARYANA,28.8672817,75.5742467
127111,Bapora S.O,Bhiwani,HARYANA,28.76741,76.0275859
127114,Kharak Kalan S.O,Bhiwani,HARYANA,28.8672575,76.3289941
127201,Loharu S.O,Bhiwani,HARYANA,28.5017208,75.7836589
127306,Charkhi  Dadri Hsg-ii S.O,Bhiwani,HARYANA,28.5912199,76.2015572
127307,Achina S.O,Bhiwani,HARYANA,28.6512549,76.3405733
127308,Badhara S.O,Bhiwani,HARYANA,28.5213393,75.9695465
127309,Manheru S.O,Bhiwani,HARYANA,28.6953309,76.2131474
127310,Jhojhu S.O,Bhiwani,HARYANA,28.4443293,76.1088001
131001,Sonipat H.O,Sonipat,HARYANA,28.9905081,76.9873477
131021,Bahalgarh S.O,Sonipat,HARYANA,28.9582084,77.1255055
131022,Bhatgaon S.O (Sonipat),Sonipat,HARYANA,28.9711464,76.9066829
131023,Jakhauli S.O,Sonipat,HARYANA,28.9043194,77.1600201
131024,Juan S.O,Sonipat,HARYANA,29.08317,76.8836261
131027,Murthal S.O,Sonipat,HARYANA,29.0600389,77.1139984
131028,Industrial Estate Kundli S.O,Sonipat,HARYANA,28.8676987,77.1481919
131029,P.S.Rai S.O,Sonipat,HARYANA,28.8976429,77.0909809
131039,Engg College Muthal S.O,Sonipat,HARYANA,29.0784242,77.067959
131101,Ganaur S.O,Sonipat,HARYANA,29.1424931,77.0219019
131102,Purkhas S.O,Sonipat,HARYANA,29.1105776,76.9297354
131103,Nahri S.O,Sonipat,HARYANA,28.8680369,77.0219019
131301,Gohana S.O,Sonipat,HARYANA,29.1001866,76.7105632
131302,Butana S.O,Sonipat,HARYANA,29.2128929,76.583499
131304,Baroda S.O,Sonipat,HARYANA,29.1271519,76.5257007
131305,Kanyagurukul Khanpur S.O,Sonipat,HARYANA,29.1448311,76.8144298
131306,Mundlana S.O,Sonipat,HARYANA,29.2110242,76.7913558
131402,Kharkhauda S.O,Sonipat,HARYANA,28.8899496,76.8951551
131403,Rohat S.O (Sonipat),Sonipat,HARYANA,28.9299326,76.9527836
131408,Farmana S.O,Sonipat,HARYANA,28.9620217,76.8144298
131409,Bhainswal Kalan S.O,Sonipat,HARYANA,29.0134263,76.7567368
132001,Karnal H.O,Karnal,HARYANA,29.6386837,77.0794705
132022,Kunjpura S.O,Karnal,HARYANA,29.6990234,77.1139984
132023,S.S. Kunjpura S.O,Karnal,HARYANA,29.7650496,77.0909809
132024,Nissing S.O,Karnal,HARYANA,29.7429761,76.7567368
132036,Jundla S.O,Karnal,HARYANA,29.615757,76.8490328
132037,Madhuban S.O (Karnal),Karnal,HARYANA,29.6170352,76.9758274
132039,Assandh S.O,Karnal,HARYANA,29.5217315,76.5950555
132040,Ballah S.O,Karnal,HARYANA,29.5553521,76.8144298
132041,Indri S.O,Karnal,HARYANA,29.8662899,77.0794705
132046,Salwan S.O,Karnal,HARYANA,29.51071,76.7105632
132054,Garhi Birbal S.O,Karnal,HARYANA,29.8856172,77.1600201
132101,Samalkha S.O,Panipat,HARYANA,29.2647223,76.9873477
132102,Patti Kalyana S.O,Panipat,HARYANA,29.2070155,77.0391754
132103,Panipat H.O,Panipat,HARYANA,29.4107176,77.0794705
132104,Panipat Khadi Ashram S.O,Panipat,HARYANA,29.3319733,77.0909809
132105,Panipat Thermal Project S.O,Panipat,HARYANA,29.3799485,76.8836261
132106,Panipat NFL S.O,Panipat,HARYANA,29.3845333,76.9297354
132107,Israna S.O,Panipat,HARYANA,29.2976701,76.745195
132108,Panipat Beas Project S.O,Panipat,HARYANA,29.3251934,77.0219019
132113,Madlauda S.O,Panipat,HARYANA,29.4288777,76.8028933
132114,Gharunda S.O,Karnal,HARYANA,29.5384407,76.9873477
132115,Hathwala S.O,Panipat,HARYANA,29.1971931,77.1139984
132116,Taraori S.O,Karnal,HARYANA,29.7615507,76.9412601
132117,Nilokheri S.O,Karnal,HARYANA,29.8979883,76.9412601
132122,Atta S.O,Panipat,HARYANA,29.2469096,77.0967357
132140,Panipat Refinary S.O,Panipat,HARYANA,29.4916335,76.860565
132145,Neoltha S.O,Panipat,HARYANA,29.3115127,76.8836261
132157,Nigdhu S.O,Karnal,HARYANA,29.8385942,76.8028933
133001,Ambala G.P.O.,Ambala,HARYANA,30.377589,76.860565
133004,Kuldeep Nagar S.O,Ambala,HARYANA,30.2846381,76.8374995
133005,Babyal S.O,Ambala,HARYANA,30.366075,76.8865085
133006,Ind-estate S.O,Ambala,HARYANA,30.3369789,76.9066829
133101,Bihta S.O (Ambala),Ambala,HARYANA,30.2736618,76.9527836
133102,Kesri S.O,Ambala,HARYANA,30.2463357,76.9066829
133103,Mustafabad S.O (Yamuna Nagar),Yamuna Nagar,HARYANA,30.1934611,77.1715228
133104,Saha S.O,Ambala,HARYANA,30.323633,76.9988669
133201,Barara S.O,Ambala,HARYANA,30.2222932,77.0622028
133202,Dhin S.O,Ambala,HARYANA,30.2444703,77.1139984
133203,Mullana S.O,Ambala,HARYANA,30.2516988,77.0161436
133204,Sadhaura S.O,Yamuna Nagar,HARYANA,30.4247721,77.2175223
133205,Adhoya S.O,Ambala,HARYANA,30.187597,76.9988669
133206,Sarawan S.O,Yamuna Nagar,HARYANA,30.3468402,77.1923165
133207,Mullana Engineering College S.O,Ambala,HARYANA,30.2551606,77.0506896
133301,B.C.W. Suraj Pur S.O,Panchkula,HARYANA,30.8272925,76.8374995
133302,Kalka S.O,Panchkula,HARYANA,30.8569568,76.9066829
134003,Ambala City H.O,Ambala,HARYANA,30.2829736,76.7105632
134005,Jandli S.O,Ambala,HARYANA,30.3561802,76.7964036
134007,Baldev Nagar S.O,Ambala,HARYANA,30.39941,76.7971247
134101,H.M.T.Pinjore S.O,Panchkula,HARYANA,30.7943073,76.9009191
134102,Pinjore S.O,Panchkula,HARYANA,30.7511449,76.9758274
134103,I.T.B.P.  Bhanu S.O,Panchkula,HARYANA,30.6584328,76.9527836
134104,C.R.P.F. Pinjore S.O,Panchkula,HARYANA,30.8079506,76.9239727
134107,Chandi Mandir Cantt S.O,Panchkula,HARYANA,30.7417398,76.8836261
134108,G.K. Panchkula S.O,Panchkula,HARYANA,30.6923542,76.8562405
134109,Panchkula Sector 8 S.O,Panchkula,HARYANA,30.7039849,76.9009191
134112,Panchkula Sector 4 S.O,Panchkula,HARYANA,30.6753287,76.8692134
134113,Sector 15 Panchkula S.O,Panchkula,HARYANA,30.6786134,76.8461496
134114,Mansa  Devi Sec-5 S.O,Panchkula,HARYANA,30.7193224,76.857682
134116,Sector-26 Panchkula S.O,Panchkula,HARYANA,30.6475006,76.9009191
134117,Sector 20 Panchkula S.O,Panchkula,HARYANA,30.6666448,76.8533575
134118,Barwala S.O (Panchkula),Panchkula,HARYANA,30.5430431,76.9297354
134201,Jatwar S.O,Ambala,HARYANA,30.4423865,76.9412601
134202,Shahzadpur S.O,Ambala,HARYANA,30.4516907,77.0334179
134203,Naraingarh S.O,Ambala,HARYANA,30.4609213,77.1255055
134204,Raipur Rani S.O,Panchkula,HARYANA,30.5749958,77.0219019
134205,Morni S.O,Panchkula,HARYANA,30.6373345,77.0794705
135001,Yamunanagar H.O,Yamuna Nagar,HARYANA,30.1014803,77.2749964
135002,Jagdhari Work Shop S.O,Yamuna Nagar,HARYANA,30.1026552,77.1715228
135003,Jagadhri S.O,Yamuna Nagar,HARYANA,30.194566,77.2979782
135004,Thermal Colony Yamuna Nagar S.O,Yamuna Nagar,HARYANA,30.1474075,77.3381855
135021,Khirzrabad  East S.O,Yamuna Nagar,HARYANA,30.3112515,77.4472495
135101,Buriya S.O,Yamuna Nagar,HARYANA,30.1581173,77.3898602
135102,Bilaspur (Yamunanagar) S.O,Yamuna Nagar,HARYANA,30.3410379,77.309633
135103,Chhachrauli S.O,Yamuna Nagar,HARYANA,30.2489389,77.3898602
135106,Bhudkalan S.O,Yamuna Nagar,HARYANA,30.3655022,77.5390127
135133,Radaur S.O,Yamuna Nagar,HARYANA,30.0117887,77.1715228
136020,Dhand S.O,Kaithal,HARYANA,29.8753689,76.606611
136021,Kaul S.O,Kaithal,HARYANA,29.8346795,76.6528225
136026,Pundri S.O,Kaithal,HARYANA,29.7288542,76.6181655
136027,Kaithal S.O,Kaithal,HARYANA,29.7755234,76.4100267
136030,Gumthala Garhu S.O,Kurukshetra,HARYANA,29.9464747,76.5257007
136033,Siwan S.O,Kaithal,HARYANA,29.927155,76.3405733
136034,Chika S.O,Kaithal,HARYANA,30.0632002,76.3405733
136035,Guhla S.O,Kaithal,HARYANA,29.9627394,76.247912
136038,Amin S.O,Kurukshetra,HARYANA,29.9239581,76.860565
136042,Fatehpur S.O (Kaithal),Kaithal,HARYANA,29.8024633,76.5603828
136043,Pai S.O,Kaithal,HARYANA,29.6738797,76.5257007
136044,Rajound S.O,Kaithal,HARYANA,29.5781322,76.4794435
136117,Kalayat S.O,Kaithal,HARYANA,29.649819,76.2942507
136118,Kurukshetra H.O,Kurukshetra,HARYANA,30.0124711,76.8374995
136119,Kurukshetra University S.O,Kurukshetra,HARYANA,29.9655011,76.7105632
136128,Pehowa S.O,Kurukshetra,HARYANA,30.0014142,76.6181655
136129,Ismailabad S.O,Kurukshetra,HARYANA,30.1070594,76.6528225
136130,Jhansa S.O,Kurukshetra,HARYANA,30.1188944,76.7682775
136131,Pipli S.O,Kurukshetra,HARYANA,29.9888728,76.9412601
136132,Ladwa S.O,Kurukshetra,HARYANA,29.9980938,77.0334179
136135,Shahabad(M) S.O,Kurukshetra,HARYANA,30.1204366,76.8951551
136136,Thol S.O,Kurukshetra,HARYANA,30.1892775,76.7913558
136156,Babain S.O,Kurukshetra,HARYANA,30.0843255,76.9873477
140001,Ropar H.O,Rupnagar,PUNJAB,30.9688415,76.5199195
140101,Morinda S.O,Ropar,PUNJAB,30.788715,76.4678766
140102,Lutheri S.O,Ropar,PUNJAB,30.8288892,76.4215988
140103,Kurali S.O,Mohali,PUNJAB,30.8435639,76.5603828
140108,Mian Pur S.O,Rupnagar,PUNJAB,30.9510393,76.6181655
140109,Khizrabad West S.O,Mohali,PUNJAB,30.9031593,76.6990172
140110,Sialba Majri S.O,Mohali,PUNJAB,30.833115,76.675922
140111,Bela S.O (Rupnagar),Rupnagar,PUNJAB,30.9265583,76.3868797
140112,Chamkaur Sahib S.O,Rupnagar,PUNJAB,30.8690201,76.3753046
140113,Ghanauli S.O,Rupnagar,PUNJAB,31.0262091,76.583499
140114,Bharatgarh S.O,Rupnagar,PUNJAB,31.0911413,76.6123884
140115,Kiratpur Sahib S.O,Ropar,PUNJAB,31.183681,76.583499
140116,Kotla Power House S.O,Rupnagar,PUNJAB,31.2261886,76.5603828
140117,Nurpur Bedi S.O,Rupnagar,PUNJAB,31.1614039,76.4794435
140118,Anand Pur Sahib S.O,Ropar,PUNJAB,31.2362867,76.4967919
140119,Takhatgarh S.O,Rupnagar,PUNJAB,31.0763633,76.5257007
140123,Ganugwal S.O,Rupnagar,PUNJAB,31.2675144,76.4736602
140124,Nangal Township S.O,Rupnagar,PUNJAB,31.3922527,76.3810922
140125,Pratap Nagar Nangal S.O,Rupnagar,PUNJAB,31.3598496,76.3926668
140126,Fertilizer Factory Nangal S.O,Rupnagar,PUNJAB,31.3162182,76.3521514
140133,Bhanupali S.O,Ropar,PUNJAB,31.2787884,76.4215988
140201,Mubarakpur S.O (Patiala),Mohali,PUNJAB,30.6051755,76.8461496
140301,Kharar S.O (Rupnagar),Rupnagar,PUNJAB,30.7630356,76.6528225
140306,Manauli S.O,Rupnagar,PUNJAB,30.6121835,76.7221082
140307,Landran S.O,Rupnagar,PUNJAB,30.6804285,76.6181655
140308,Sohana S.O,Rupnagar,PUNJAB,30.705177,76.6932438
140401,Rajpura H.O,Patiala,PUNJAB,30.494883,76.5719414
140405,Sangatpur Sodhian S.O,Fatehgarh Sahib,PUNJAB,30.5758434,76.3753046
140406,Sirhind S.O,Fatehgarh Sahib,PUNJAB,30.6033273,76.4215988
140407,Fatehgarh Sahib S.O,Fatehgarh Sahib,PUNJAB,30.6661237,76.3753046
140412,Bassi S.O (Fatehgarh Sahib),Fatehgarh Sahib,PUNJAB,30.7110003,76.4794435
140413,Gharuan S.O,Rupnagar,PUNJAB,30.7533623,76.5603828
140417,Shambhu S.O,Patiala,PUNJAB,30.4140319,76.6643728
140501,Lalru S.O,Mohali,PUNJAB,30.4681308,76.860565
140506,Dappar Ad S.O,Mohali,PUNJAB,30.526535,76.7682775
140507,Derabassi S.O,Mohali,PUNJAB,30.5835753,76.8836261
140601,Banur S.O,Patiala,PUNJAB,30.5482456,76.7047904
140602,Manakpur S.O,Patiala,PUNJAB,30.5900961,76.6181655
140603,Zirakpur S.O,Mohali,PUNJAB,30.6193263,76.7913558
140604,Baltana S.O,Mohali,PUNJAB,30.6625018,76.8129878
140701,Kauli S.O,Patiala,PUNJAB,30.4121228,76.5372625
140702,Ghanur S.O,Patiala,PUNJAB,30.3062029,76.606611
140802,Sanghol S.O,Fatehgarh Sahib,PUNJAB,30.7788842,76.3753046
140901,Mullanpur S.O,Mohali,PUNJAB,30.8177598,76.745195
141001,Ludhiana H.O,Ludhiana,PUNJAB,30.9058885,75.8359645
141002,Model Town (Ludhiana) S.O,Ludhiana,PUNJAB,30.8871823,75.8446802
141003,Millerganj S.O,Ludhiana,PUNJAB,30.8721582,75.8359645
141004,P.A.U. S.O,Ludhiana,PUNJAB,30.9033011,75.8127199
141006,Gne College S.O,Ludhiana,PUNJAB,30.8553803,75.8621101
141007,Basti Jodhewal S.O,Ludhiana,PUNJAB,30.9661366,75.9230976
141008,Central Post Office S.O,Ludhiana,PUNJAB,30.9579652,75.7487779
141010,Focal Point S.O,Ludhiana,PUNJAB,30.9023784,75.9056753
141012,Rajguru Nagar S.O,Ludhiana,PUNJAB,30.8894676,75.7894716
141013,Basant Avenue S.O,Ludhiana,PUNJAB,30.8614623,75.8156257
141014,Dhandari Kalan S.O,Ludhiana,PUNJAB,30.872488,75.9405178
141015,Mundian Kalan S.O,Ludhiana,PUNJAB,30.9112101,75.9347113
141016,Lohora S.O,Ludhiana,PUNJAB,30.8573921,75.9056753
141017,Jugiana S.O,Ludhiana,PUNJAB,30.8487083,75.9289046
141101,Dakha Mandi S.O,Ludhiana,PUNJAB,30.8351329,75.6557206
141102,Dakha S.O,Ludhiana,PUNJAB,30.8879365,75.7255192
141103,Mohie S.O,Ludhiana,PUNJAB,30.8016559,75.7080727
141104,KCG Sudhar S.O,Ludhiana,PUNJAB,30.782569,75.6382657
141105,Sarabha S.O,Ludhiana,PUNJAB,30.7477755,75.6789905
141106,Halwara Aerodrome S.O,Ludhiana,PUNJAB,30.7488256,75.6382657
141107,Halwara S.O,Ludhiana,PUNJAB,30.7174242,75.6091696
141108,Pakhowal S.O,Ludhiana,PUNJAB,30.6828572,75.7022567
141109,Raekot S.O,Ludhiana,PUNJAB,30.6148145,75.5975296
141110,Hambran S.O,Ludhiana,PUNJAB,30.9025679,75.6557206
141112,Kohara S.O,Ludhiana,PUNJAB,30.8963885,76.0043731
141113,Katani Kalan S.O,Ludhiana,PUNJAB,30.8540139,76.0798006
141114,Samrala S.O,Ludhiana,PUNJAB,30.8616124,76.2015572
141115,Machhiwara S.O,Ludhiana,PUNJAB,30.9516436,76.2015572
141116,Gill S.O,Ludhiana,PUNJAB,30.8209004,75.8301537
141117,Sihar S.O,Ludhiana,PUNJAB,30.6835578,75.911483
141118,Dehlon S.O,Ludhiana,PUNJAB,30.7434188,75.841775
141119,Maloudh S.O,Ludhiana,PUNJAB,30.6210553,75.9579358
141120,Sanehwal S.O,Ludhiana,PUNJAB,30.8263314,75.9811564
141121,Behlolpur S.O,Ludhiana,PUNJAB,30.9041328,76.2826675
141122,Jaspal Banger S.O,Ludhiana,PUNJAB,30.8236417,75.9056753
141123,Ramgarh S.O (Ludhiana),Ludhiana,PUNJAB,30.8875739,75.9753516
141125,Kakrala Kalan S.O,Ludhiana,PUNJAB,30.8590976,76.2826675
141126,Sri Bhaini Sahib S.O,Ludhiana,PUNJAB,30.9364921,76.0623979
141127,Koom Kalan S.O,Ludhiana,PUNJAB,30.91474236,76.05777218
141201,Kila Raipur S.O,Ludhiana,PUNJAB,30.768332,75.8127199
141202,Gujjarwal S.O,Ludhiana,PUNJAB,30.7304803,75.7255192
141203,Narangwal S.O,Ludhiana,PUNJAB,30.7581778,75.7720328
141204,Ghungrana S.O,Ludhiana,PUNJAB,30.6932274,75.795284
141205,Latala S.O,Ludhiana,PUNJAB,30.6592546,75.7429636
141206,Ghawaddi S.O,Ludhiana,PUNJAB,30.7736401,75.911483
141401,Khanna H.O,Ludhiana,PUNJAB,30.7114183,76.1667807
141411,Bhari S.O,Fatehgarh Sahib,PUNJAB,30.7364088,76.2942507
141412,Daheru S.O,Ludhiana,PUNJAB,30.7589839,76.1377935
141413,Dhamote S.O,Ludhiana,PUNJAB,30.6762876,76.0507949
141414,Issru S.O,Ludhiana,PUNJAB,30.6613102,76.1203982
141415,Jarg S.O,Ludhiana,PUNJAB,30.6111761,76.0739999
141416,Payal S.O,Ludhiana,PUNJAB,30.723887,76.0739999
141417,Rahawan S.O,Ludhiana,PUNJAB,30.7389636,76.2131474
141418,Rampur S.O (Ludhiana),Ludhiana,PUNJAB,30.8177127,76.0565965
141419,Ghudani Kalan S.O,Ludhiana,PUNJAB,30.7137422,75.9811564
141421,Doraha S.O (Ludhiana),Ludhiana,PUNJAB,30.7863961,76.0275859
141422,Bopa Rai Kalan S.O (Ludhiana),Ludhiana,PUNJAB,30.8050596,75.6382657
141801,Khamano Kalan S.O,Fatehgarh Sahib,PUNJAB,30.8190126,76.3289941
142001,Moga H.O,Moga,PUNJAB,30.8015468,75.1662121
142011,Dala S.O,Moga,PUNJAB,30.7872224,75.2362381
142021,Baddowal S.O,Ludhiana,PUNJAB,30.8846708,75.7811158
142022,Lalton Kalan S.O,Ludhiana,PUNJAB,30.8507629,75.795284
142023,Mann S.O,Ludhiana,PUNJAB,30.8021366,75.5626039
142024,Sidhwan Khurd S.O,Ludhiana,PUNJAB,30.8444549,75.5393155
142025,Sowaddi S.O,Ludhiana,PUNJAB,30.914506,75.5626039
142026,Jagraon H.O,Ludhiana,PUNJAB,30.7717219,75.4927278
142027,Ayali Kalan S.O,Ludhiana,PUNJAB,30.9080514,75.754592
142029,Jodhan S.O,Ludhiana,PUNJAB,30.7969088,75.7662195
142030,Kamalpura S.O,Ludhiana,PUNJAB,30.7068944,75.5160235
142031,Hathur S.O,Ludhiana,PUNJAB,30.6287919,75.422819
142032,Bassian S.O,Ludhiana,PUNJAB,30.6393835,75.5160235
142033,Sidhwan Bet S.O,Ludhiana,PUNJAB,30.9137957,75.4577775
142034,Manuke S.O,Ludhiana,PUNJAB,30.6791038,75.4694285
142035,Mallah S.O,Ludhiana,PUNJAB,30.7286926,75.4111644
142036,Galib Kalan S.O,Ludhiana,PUNJAB,30.8311764,75.422819
142037,Badhni Kalan S.O,Moga,PUNJAB,30.6829265,75.3062326
142038,Baghapurana S.O,Moga,PUNJAB,30.7303788,75.0377502
142039,Bilaspur (Moga) S.O,Moga,PUNJAB,30.5883763,75.3645369
142040,Butter S.O,Moga,PUNJAB,30.7225106,75.2595731
142041,Bhinder S.O (Firozpur),Firozpur,PUNJAB,30.8878442,75.329557
142042,Dharamkot S.O,Moga,PUNJAB,30.9766643,75.2245693
142043,Kot Ise Khan S.O,Moga,PUNJAB,30.95318,75.1195107
142044,Makhu S.O,Firozpur,PUNJAB,31.0836964,74.9910112
142045,Manoke S.O,Moga,PUNJAB,30.5821885,75.2128996
142046,Patto Hira Singh S.O,Moga,PUNJAB,30.5349232,75.2420722
142047,Zira S.O,Firozpur,PUNJAB,30.9885482,74.9442585
142048,Ghall Kalan S.O,Moga,PUNJAB,30.8201879,75.0377502
142049,Guru Teg Bahadur Garh S.O,Moga,PUNJAB,30.6350206,74.9910112
142050,Talwandi Bhai S.O,Firozpur,PUNJAB,30.8933344,74.8974925
142052,Ferozeshah S.O,Firozpur,PUNJAB,30.8765644,74.7571147
142053,Dhudike S.O,Moga,PUNJAB,30.7629517,75.3178952
142054,Kokri Kalan S.O,Moga,PUNJAB,30.840241,75.3062326
142055,Nihal Singh Wala S.O,Moga,PUNJAB,30.5677591,75.2829046
142056,Gholia Khurd S.O,Moga,PUNJAB,30.6919253,75.1895576
142057,Samadh Bhai S.O,Moga,PUNJAB,30.5686365,75.0961549
142058,Kishanpura S.O (Moga),Moga,PUNJAB,30.9551837,75.329557
142060,Mudki S.O,Firozpur,PUNJAB,30.7882297,74.8624092
143001,Amritsar G.P.O.,Amritsar,PUNJAB,31.6427636,74.8565613
143002,Khalsa College S.O,Amritsar,PUNJAB,31.6319333,74.8360918
143003,J.F.Mill S.O,Amritsar,PUNJAB,31.638676,74.9150313
143005,Guru Nanak Dev University S.O,Amritsar,PUNJAB,31.637656,74.8258562
143006,Gandhi Bazar S.O (Amritsar),Amritsar,PUNJAB,31.6052458,74.9150313
143008,Sjs Avenue S.O,Amritsar,PUNJAB,31.6852776,74.8857989
143009,Fatahpur S.O,Amritsar,PUNJAB,31.5653862,74.8156199
143022,Kot Mit Singh S.O,Amritsar,PUNJAB,31.5543796,74.9091853
143101,Raja Sansi S.O,Amritsar,PUNJAB,31.7184729,74.7922202
143102,Ajnala S.O,Amritsar,PUNJAB,31.8336912,74.7337069
143103,Chamiari S.O,Amritsar,PUNJAB,31.8701822,74.8507131
143105,Chheharta S.O,Amritsar,PUNJAB,31.6042801,74.7688173
143107,Distrillery Khasa S.O,Amritsar,PUNJAB,31.5957256,74.6985891
143108,Attari S.O,Amritsar,PUNJAB,31.6065216,74.6049061
143109,Chogawan S.O,Amritsar,PUNJAB,31.7041875,74.6751731
143110,Preet Nagar S.O (Amritsar),Amritsar,PUNJAB,31.7526135,74.6166192
143111,Khilchian S.O,Amritsar,PUNJAB,31.5850187,75.1662121
143112,Rayya S.O,Amritsar,PUNJAB,31.518065,75.1662121
143113,Fatehpur Rajputan S.O,Amritsar,PUNJAB,31.6352742,75.0260667
143114,Mehta Chowk S.O,Amritsar,PUNJAB,31.6601982,75.2362381
143115,Jandiala Guru S.O,Amritsar,PUNJAB,31.548856,75.0494329
143116,Tarsika S.O,Amritsar,PUNJAB,31.6366361,75.1311874
143117,Khadoor Sahib S.O,Amritsar,PUNJAB,31.4427944,75.0961549
143118,Vairowal S.O,Tarn Taran,PUNJAB,31.4287338,75.1662121
143119,Mattewal S.O,Amritsar,PUNJAB,31.716042,75.1428632
143149,Jandiala R.S S.O,Amritsar,PUNJAB,31.5767204,75.0961549
143201,Beas S.O,Amritsar,PUNJAB,31.4789051,75.2128996
143202,Baba Bakala S.O,Amritsar,PUNJAB,31.5736976,75.2595731
143203,Butala S.O,Amritsar,PUNJAB,31.6069353,75.3528779
143204,D.B.J.Singh S.O,Amritsar,PUNJAB,31.5345119,75.3062326
143205,Sathiala S.O,Amritsar,PUNJAB,31.6210674,75.2829046
143301,Chabhal S.O,Tarn Taran,PUNJAB,31.4733592,74.7922202
143302,Sur Singh S.O,Tarn Taran,PUNJAB,31.4230672,74.7454112
143303,Bhikhiwind S.O,Tarn Taran,PUNJAB,31.3504271,74.6985891
143304,Kacha Pacca S.O,Amritsar,PUNJAB,31.2919459,74.7688173
143305,Khalra S.O,Amritsar,PUNJAB,31.3515946,74.6166192
143401,Tarn Taran H.O,Tarn Taran,PUNJAB,31.4358719,74.9442585
143406,Kang S.O,Amritsar,PUNJAB,31.456801,75.0260667
143407,Fatehabad S.O (Amritsar),Amritsar,PUNJAB,31.3283092,75.0727956
143408,Chohla Sahib S.O,Tarn Taran,PUNJAB,31.2333282,75.0260667
143409,Naushehra Pannuan S.O,Amritsar,PUNJAB,31.3004141,75.0260667
143410,Sarhali S.O (Tarn Taran),Tarn Taran,PUNJAB,31.2864819,74.9091853
143411,Dhotian S.O,Amritsar,PUNJAB,31.3674623,75.0260667
143412,Harike S.O,Amritsar,PUNJAB,31.1998398,74.9325683
143413,Bundala S.O (Amritsar),Amritsar,PUNJAB,31.5181797,74.9793243
143414,Sarai Amant Khan S.O,Amritsar,PUNJAB,31.5037288,74.6751731
143415,Kairon S.O,Amritsar,PUNJAB,31.3409427,74.8974925
143416,Patti S.O (Tarn Taran),Tarn Taran,PUNJAB,31.1899658,74.7571147
143419,Khem Karan S.O,Tarn Taran,PUNJAB,31.167207,74.5697617
143422,Goindwal S.O,Tarn Taran,PUNJAB,31.3338316,75.1195107
143501,Verka S.O,Amritsar,PUNJAB,31.6491658,74.955948
143502,Kathunangal S.O,Amritsar,PUNJAB,31.7216097,75.0026972
143504,Chawinda Devi S.O,Amritsar,PUNJAB,31.7077097,75.0727956
143505,Batala H.O,Gurdaspur,PUNJAB,31.7758933,75.1778853
143506,Govt. Poly. Tech Batala S.O,Gurdaspur,PUNJAB,31.8217046,75.2829046
143507,Aliwal S.O,Gurdaspur,PUNJAB,31.821849,75.0961549
143511,Bhagowal S.O,Gurdaspur,PUNJAB,31.9039118,75.1311874
143512,Kalanaur S.O (Gurdaspur),Gurdaspur,PUNJAB,32.0081514,75.1662121
143513,Kala Afgana S.O,Gurdaspur,PUNJAB,31.9024655,75.0260667
143514,Ghoman S.O,Gurdaspur,PUNJAB,31.6934541,75.329557
143515,Srihargobindpur S.O,Gurdaspur,PUNJAB,31.7195462,75.4577775
143516,Qadian S.O,Gurdaspur,PUNJAB,31.8076404,75.3528779
143517,Bhattian S.O,Gurdaspur,PUNJAB,31.8489174,75.5160235
143518,Naushera Majja Singh S.O,Gurdaspur,PUNJAB,31.8759997,75.2712393
143519,Dhariwal S.O,Gurdaspur,PUNJAB,31.9552657,75.2829046
143520,Sohal S.O,Gurdaspur,PUNJAB,32.0052487,75.329557
143521,Gurdaspur H.O,Gurdaspur,PUNJAB,32.0579368,75.3995089
143525,Marara S.O,Gurdaspur,PUNJAB,32.1635688,75.3528779
143526,Dorangla S.O,Gurdaspur,PUNJAB,32.059461,75.3178952
143527,Harchowal S.O,Gurdaspur,PUNJAB,31.8016434,75.4927278
143528,Kahnuwan S.O,Gurdaspur,PUNJAB,31.9477986,75.5043761
143529,Tibber S.O,Gurdaspur,PUNJAB,31.9467096,75.3995089
143530,Tibri S.O,Gurdaspur,PUNJAB,31.9993777,75.4694285
143531,Dinanagar S.O,Gurdaspur,PUNJAB,32.1203289,75.4577775
143532,Behrampur S.O,Gurdaspur,PUNJAB,32.1218823,75.3761952
143533,Gharota S.O,Pathankot,PUNJAB,32.1214135,75.5626039
143534,Taragarh (Gurdaspur) S.O,Pathankot,PUNJAB,32.2091953,75.4577775
143601,Majitha S.O,Amritsar,PUNJAB,31.7981381,74.9910112
143602,Fatehgarh Churian S.O,Gurdaspur,PUNJAB,31.874608,74.9793243
143603,Ramdass S.O,Amritsar,PUNJAB,31.9744515,74.8857989
143604,Dera Baba Nanak S.O,Gurdaspur,PUNJAB,32.010797,75.0026972
143605,Dhianpur S.O,Gurdaspur,PUNJAB,31.9303036,75.0727956
143606,Chetanpura S.O,Amritsar,PUNJAB,31.8216619,74.9091853
144001,Jalandhar City H.O,Jalandhar,PUNJAB,31.3271102,75.5917092
144002,Basti Guzan S.O,Jalandhar,PUNJAB,31.3101807,75.4927278
144003,Model Town (Jalandhar) S.O,Jalandhar,PUNJAB,31.30073,75.5567821
144004,Industrial Town S.O,Jalandhar,PUNJAB,31.3443197,75.5811376
144005,Jalandhar Cantt H.O,Jalandhar,PUNJAB,31.2956907,75.6353564
144006,P.A.P. Lines Jalandhar Cantt S.O,Jalandhar,PUNJAB,31.3214172,75.5786125
144007,Ladhewali S.O,Jalandhar,PUNJAB,31.3223614,75.6237184
144008,Grain Market S.O (Jalandhar),Jalandhar,PUNJAB,31.3387761,75.5713361
144009,Chogitti S.O,Jalandhar,PUNJAB,31.3633457,75.6149893
144010,Dhanowali S.O,Jalandhar,PUNJAB,31.2915834,75.6731734
144011,R.E.C. Jalandhar S.O,Jalandhar,PUNJAB,31.2937587,75.581523
144012,Reru S.O,Jalandhar,PUNJAB,31.3942603,75.5917092
144013,Nagra S.O (Jalandhar),Jalandhar,PUNJAB,31.380902,75.4752537
144014,Tower Town Colony S.O,Jalandhar,PUNJAB,31.5410654,75.8010962
144020,Jamsher S.O,Jalandhar,PUNJAB,31.2339038,75.6091696
144021,Basti Bawa Khel S.O,Jalandhar,PUNJAB,31.3526942,75.5218468
144022,Urban Estate S.O (Jalandhar),Jalandhar,PUNJAB,31.2836491,75.6033497
144023,Dakoha S.O,Jalandhar,PUNJAB,31.3122461,75.6455388
144024,Kukar Pind S.O,Jalandhar,PUNJAB,31.2652193,75.6382657
144025,Jandu Singha S.O,Jalandhar,PUNJAB,31.3735781,75.6557206
144026,Lambra S.O,Jalandhar,PUNJAB,31.2734015,75.5626039
144027,Suranussi S.O,Jalandhar,PUNJAB,31.3659892,75.5524157
144028,Chitti S.O,Jalandhar,PUNJAB,31.2008663,75.5160235
144029,Moron S.O,Jalandhar,PUNJAB,31.0860234,75.9405178
144030,Padhiana S.O,Jalandhar,PUNJAB,31.394307,75.7894716
144031,Rurka Kalan S.O,Jalandhar,PUNJAB,31.127391,75.7080727
144032,Samrai S.O,Kapurthala,PUNJAB,31.210515,75.6499025
144033,Jandiala S.O,Kapurthala,PUNJAB,31.1640126,75.5858886
144034,Bundala S.O (Jalandhar),Jalandhar,PUNJAB,31.1270864,75.6557206
144035,Partappura S.O,Jalandhar,PUNJAB,31.0425769,75.7022567
144036,Bilga S.O,Jalandhar,PUNJAB,31.0148784,75.6557206
144037,Pasla S.O,Jalandhar,PUNJAB,31.0897976,75.6731734
144039,Nurmahal S.O,Jalandhar,PUNJAB,31.0644037,75.5975296
144040,Nakoder S.O,Jalandhar,PUNJAB,31.1256127,75.4461256
144041,Mehatpur S.O (Jalandhar),Jalandhar,PUNJAB,31.0035902,75.4577775
144042,Shankar S.O,Jalandhar,PUNJAB,31.1609794,75.5101999
144043,Sarih S.O,Jalandhar,PUNJAB,31.1313426,75.5451379
144044,Sidhwan R.S. S.O,Jalandhar,PUNJAB,31.082501,75.5101999
144101,Patara S.O (Jalandhar),Jalandhar,PUNJAB,31.33144,75.6789905
144102,Adampur Doaba S.O,Jalandhar,PUNJAB,31.4038786,75.7255192
144103,Adampur AD S.O,Jalandhar,PUNJAB,31.4257651,75.7458708
144104,Daroli Kalan S.O,Jalandhar,PUNJAB,31.4028807,75.7662195
144105,Sham Chaurasi S.O,Hoshiarpur,PUNJAB,31.498644,75.7720328
144106,Adda Kathar S.O,Jalandhar,PUNJAB,31.4476463,75.7662195
144201,Bhogpur S.O (Jalandhar),Jalandhar,PUNJAB,31.562371,75.6440842
144202,Miani S.O,Hoshiarpur,PUNJAB,31.6856937,75.5509602
144204,Urmar S.O,Hoshiarpur,PUNJAB,31.6392332,75.632447
144205,Dasuya H.O,Hoshiarpur,PUNJAB,31.835568,75.6906241
144206,Dholbaha S.O,Hoshiarpur,PUNJAB,31.7726534,75.9230976
144207,Garhdiwala S.O,Hoshiarpur,PUNJAB,31.7418037,75.7487779
144208,Hariana S.O,Hoshiarpur,PUNJAB,31.6183102,75.841775
144209,Janauri S.O,Hoshiarpur,PUNJAB,31.6957869,75.9347113
144210,Bhunga S.O,Hoshiarpur,PUNJAB,31.6774597,75.7720328
144211,Mukerian S.O,Hoshiarpur,PUNJAB,31.948784,75.6091696
144212,Budhipind S.O,Hoshiarpur,PUNJAB,31.6865524,75.6557206
144213,Bhanowal S.O,Hoshiarpur,PUNJAB,31.7943489,75.8185314
144214,Tanda Ram Sahai S.O,Hoshiarpur,PUNJAB,31.8792719,75.5858886
144216,Talwara Township S.O,Hoshiarpur,PUNJAB,31.9334219,75.8650148
144221,Hajipur S.O,Hoshiarpur,PUNJAB,31.9745991,75.737149
144222,Datarpur S.O,Hoshiarpur,PUNJAB,31.9255195,75.795284
144223,Kamahi Devi S.O,Hoshiarpur,PUNJAB,31.8612736,75.8185314
144224,Bhambotar S.O,Hoshiarpur,PUNJAB,31.8717691,75.911483
144301,Alawalpur S.O (Jalandhar),Jalandhar,PUNJAB,31.433134,75.6382657
144302,Beas Pind S.O,Jalandhar,PUNJAB,31.4604332,75.632447
144303,Kala Bakra S.O,Jalandhar,PUNJAB,31.5025002,75.6091696
144305,Khudda S.O,Hoshiarpur,PUNJAB,31.7338536,75.6789905
144306,Bhangala S.O,Hoshiarpur,PUNJAB,32.0155748,75.6091696
144311,Dhesian Kahna S.O,Jalandhar,PUNJAB,31.1485113,75.6964405
144401,Phagwara H.O,Kapurthala,PUNJAB,31.257546,75.8185314
144402,Satnampura S.O,Kapurthala,PUNJAB,31.2246701,75.7255192
144403,Ranipur S.O (Kapurthala),Kapurthala,PUNJAB,31.2945292,75.7487779
144404,Ajnoha S.O,Hoshiarpur,PUNJAB,31.3052198,75.8940592
144405,Narur S.O,Jalandhar,PUNJAB,31.3273873,75.841775
144406,Baddon S.O,Hoshiarpur,PUNJAB,31.3414272,75.9172904
144407,Domeli S.O,Jalandhar,PUNJAB,31.3383182,75.7894716
144408,Panchhat S.O,Kapurthala,PUNJAB,31.3362402,75.8708242
144409,Goraya S.O,Jalandhar,PUNJAB,31.1401941,75.7720328
144410,Phillaur S.O,Jalandhar,PUNJAB,31.040489,75.7836589
144411,University Campus Nanak Nagri S.O,Kapurthala,PUNJAB,31.2668695,75.7022567
144415,Lassara S.O,Nawanshahr,PUNJAB,31.0272942,75.9172904
144416,Apra S.O,Jalandhar,PUNJAB,31.0895133,75.8708242
144417,Aur S.O,Nawanshahr,PUNJAB,31.0587428,75.9985693
144418,Bara Pind S.O,Jalandhar,PUNJAB,31.100518,75.8185314
144419,Dayalpur S.O (Jalandhar),Jalandhar,PUNJAB,31.0584124,75.8940592
144421,Sahlon S.O,Nawanshahr,PUNJAB,31.10125,76.0275859
144422,Urapar S.O,Nawanshahr,PUNJAB,31.0436667,75.9637413
144501,Kultham S.O,Nawanshahr,PUNJAB,31.1928733,75.841775
144502,Dosanjh Kalan S.O,Jalandhar,PUNJAB,31.1542604,75.8475853
144503,Pharala S.O,Nawanshahr,PUNJAB,31.2480889,75.9347113
144504,Behram S.O,Nawanshahr,PUNJAB,31.1818792,75.8940592
144505,Banga S.O,Nawanshahr,PUNJAB,31.2058019,75.9579358
144506,Mahil Gailan S.O,Nawanshahr,PUNJAB,31.2136387,76.0798006
144507,Mokandpur S.O,Nawanshahr,PUNJAB,31.1134491,75.9347113
144508,Naura S.O,Nawanshahr,PUNJAB,31.1737194,76.0739999
144509,Khankhana S.O,Nawanshahr,PUNJAB,31.1646006,75.9405178
144510,Ladhana Jhikka S.O,Nawanshahr,PUNJAB,31.233377,76.0043731
144511,Dosanjh Khurd S.O,Nawanshahr,PUNJAB,31.1360694,75.9869609
144512,Kahma S.O,Nawanshahr,PUNJAB,31.1748651,76.0333885
144513,Musapur S.O,Nawanshahr,PUNJAB,31.1299616,76.0333885
144514,Nawanshahar S.O,Nawanshahr,PUNJAB,31.1338927,76.1203982
144515,Jadla S.O,Nawanshahr,PUNJAB,31.0541077,76.2131474
144516,Langroya S.O,Nawanshahr,PUNJAB,31.1164914,76.1667807
144517,Rahon S.O,Nawanshahr,PUNJAB,31.0664914,76.1203982
144518,Garcha S.O,Nawanshahr,PUNJAB,31.0164645,76.0739999
144519,Kotfathui S.O,Hoshiarpur,PUNJAB,31.2780551,75.95213
144520,Binjon S.O,Hoshiarpur,PUNJAB,31.2782382,76.0043731
144521,Balachaur S.O,Nawanshahr,PUNJAB,31.051633,76.2942507
144522,Kathagrh S.O,Nawanshahr,PUNJAB,31.0165902,76.3868797
144523,Binewal S.O,Hoshiarpur,PUNJAB,31.2638214,76.2826675
144524,Saroa S.O,Nawanshahr,PUNJAB,31.2164097,76.2594981
144525,Sahiba S.O,Nawanshahr,PUNJAB,31.1765013,76.3058328
144526,Mehandpur S.O,Nawanshahr,PUNJAB,31.1040845,76.2594981
144527,Garhshanker S.O,Hoshiarpur,PUNJAB,31.2213421,76.2015572
144528,Rampur Bilron S.O,Hoshiarpur,PUNJAB,31.2711233,76.1435915
144529,Saila Khurd S.O,Hoshiarpur,PUNJAB,31.2921649,76.0798006
144530,Jaijon S.O,Hoshiarpur,PUNJAB,31.3384148,76.1435915
144531,Moranwali S.O,Hoshiarpur,PUNJAB,31.2609332,76.0507949
144532,Samundra S.O,Nawanshahr,PUNJAB,31.1576971,76.1841701
144533,Asron S.O,Nawanshahr,PUNJAB,30.9977082,76.4736602
144601,Kapurthala H.O,Kapurthala,PUNJAB,31.387092,75.3836931
144602,Rail Coach Factory S.O,Kapurthala,PUNJAB,31.38893,75.3995089
144606,Talwandi Chaudharian S.O,Kapurthala,PUNJAB,31.2946099,75.1662121
144620,Sheikhupur S.O (Kapurthala),Kapurthala,PUNJAB,31.3459043,75.3178952
144621,Begowal S.O,Kapurthala,PUNJAB,31.5838784,75.5393155
144622,Bholath S.O,Kapurthala,PUNJAB,31.5114846,75.4927278
144623,Kala Sanghian S.O,Kapurthala,PUNJAB,31.2672055,75.4111644
144624,Nadala S.O,Kapurthala,PUNJAB,31.5572795,75.4184335
144625,Sidhwan Dona S.O,Kapurthala,PUNJAB,31.2465627,75.329557
144626,Sultanpur Lodhi S.O,Kapurthala,PUNJAB,31.2345624,75.1311874
144628,Thatha Jadid S.O,Kapurthala,PUNJAB,31.3448187,75.2128996
144629,Lohian S.O,Jalandhar,PUNJAB,31.1450277,75.1311874
144630,Bopa Rai Kalan S.O (Jalandhar),Jalandhar,PUNJAB,31.1928459,75.4461256
144631,Nangal Lubana S.O,Kapurthala,PUNJAB,31.6177782,75.4461256
144632,Chachoki S.O,Kapurthala,PUNJAB,31.1761838,75.7429636
144633,Sarhali S.O (Jalandhar),Jalandhar,PUNJAB,31.1782051,75.6615384
144701,Malsian S.O,Jalandhar,PUNJAB,31.1668306,75.3178952
144702,Shahkot S.O,Jalandhar,PUNJAB,31.0717809,75.2712393
144703,Nangal Ambian S.O,Jalandhar,PUNJAB,31.0476082,75.3528779
144801,Kartarpur S.O,Jalandhar,PUNJAB,31.4524489,75.5626039
144802,Jagatjit Nagar S.O,Kapurthala,PUNJAB,31.5007016,75.3995089
144803,Dialpur S.O,Kapurthala,PUNJAB,31.4694618,75.5160235
144804,Dhilwan S.O,Kapurthala,PUNJAB,31.5176207,75.3528779
144805,CRPF Campus Sarai Khas S.O,Jalandhar,PUNJAB,31.4072932,75.5101999
144806,Pattar Kalan S.O,Jalandhar,PUNJAB,31.3943203,75.4461256
144819,Raipur Pir Bux Wala S.O,Kapurthala,PUNJAB,31.5807271,75.4636031
145001,Pathankot S.O,Gurdaspur,PUNJAB,32.3801323,75.7836589
145022,Dunera S.O,Pathankot,PUNJAB,32.442254,75.841775
145023,Sujanpur S.O (Gurdaspur),Pathankot,PUNJAB,32.3142826,75.5975296
145024,Madhopur S.O (Gurdaspur),Pathankot,PUNJAB,32.3675857,75.626628
145025,Malakpur S.O,Pathankot,PUNJAB,32.220061,75.5509602
145026,Narot Jailmal Singh S.O,Pathankot,PUNJAB,32.2578631,75.3995089
145027,Bamial S.O,Pathankot,PUNJAB,32.299496,75.3761952
145029,Shahpur Kandi Township S.O,Pathankot,PUNJAB,32.3596824,75.7022567
145101,Mirthal S.O,Pathankot,PUNJAB,32.1517242,75.632447
146001,Hoshiarpur H.O,Hoshiarpur,PUNJAB,31.4695584,75.911483
146021,Sadhu Ashram S.O,Hoshiarpur,PUNJAB,31.5694221,76.0043731
146022,Piplanwala S.O,Hoshiarpur,PUNJAB,31.5038877,75.8185314
146023,Bajwara S.O,Hoshiarpur,PUNJAB,31.5132626,75.95213
146024,Factory Area Chohal S.O,Hoshiarpur,PUNJAB,31.6438116,75.9695465
146101,Barian  Kalan S.O,Hoshiarpur,PUNJAB,31.3903172,76.0043731
146102,Bassi Kalan S.O,Hoshiarpur,PUNJAB,31.4751353,76.0623979
146103,Bham S.O,Hoshiarpur,PUNJAB,31.3763301,75.9289046
146104,Bihala S.O,Hoshiarpur,PUNJAB,31.4075632,75.9579358
146105,Mahilpur S.O,Hoshiarpur,PUNJAB,31.3730437,76.0507949
146106,Nangal Kalan S.O,Hoshiarpur,PUNJAB,31.3292383,75.9840587
146107,Paldi S.O (Hoshiarpur),Hoshiarpur,PUNJAB,31.3168354,75.9985693
146108,Sarhala Kalan S.O,Hoshiarpur,PUNJAB,31.3228926,75.95213
146109,Tuto Mazara S.O,Hoshiarpur,PUNJAB,31.3282122,76.0507949
146110,Kot Abdul Khaliq S.O,Hoshiarpur,PUNJAB,31.5298199,76.0507949
146111,Purhiran S.O,Hoshiarpur,PUNJAB,31.4617492,75.841775
146112,Rajpur Bhayan S.O,Hoshiarpur,PUNJAB,31.399792,75.8882508
146113,Bulhowal S.O,Hoshiarpur,PUNJAB,31.5943319,75.777846
146114,Nandachaur S.O,Hoshiarpur,PUNJAB,31.5693474,75.754592
146115,Pajjodeotta S.O,Hoshiarpur,PUNJAB,31.5542146,75.7197039
146116,Kandhala Jattan S.O,Hoshiarpur,PUNJAB,31.6100887,75.7197039
147001,Patiala H.O,Patiala,PUNJAB,30.2896414,76.3405733
147002,University(Patiala) S.O,Patiala,PUNJAB,30.3571869,76.4447397
147003,D C W S.O,Patiala,PUNJAB,30.3572743,76.4187059
147004,Govt. Printing Press S.O,Patiala,PUNJAB,30.3850123,76.3868797
147005,Majithia Enclave S.O,Patiala,PUNJAB,30.3549793,76.3434679
147006,Prem Nagar S.O,Patiala,PUNJAB,30.3571666,76.3608796
147007,New Lal Bagh Colony S.O,Patiala,PUNJAB,30.32565071,76.37338323
147021,Guruteghbahadurgarh S.O,Patiala,PUNJAB,30.3091013,76.5257007
147101,Samana S.O,Patiala,PUNJAB,30.1843476,76.2015572
147102,Ghagga S.O,Patiala,PUNJAB,29.9982173,76.1551866
147103,Sanaur S.O,Patiala,PUNJAB,30.269101,76.4678766
147104,Chinarthal Kalan S.O,Patiala,PUNJAB,30.5156986,76.3405733
147105,Patran S.O,Patiala,PUNJAB,29.9025922,76.1088001
147111,Devigarh S.O,Patiala,PUNJAB,30.1732299,76.5257007
147201,Nabha S.O,Patiala,PUNJAB,30.3603196,76.1551866
147202,Bhadson S.O,Patiala,PUNJAB,30.500844,76.2015572
147203,Amloh S.O,Fatehgarh Sahib,PUNJAB,30.586134,76.1551866
147301,Mandigobindgarh S.O,Fatehgarh Sahib,PUNJAB,30.6537565,76.2594981
148001,Sangrur H.O,Sangrur,PUNJAB,30.2345977,75.8301537
148017,Bhalwan S.O,Sangrur,PUNJAB,30.347726,75.9347113
148018,Bagrian S.O,Sangrur,PUNJAB,30.4230746,76.0043731
148019,Jitwal Kalan S.O,Sangrur,PUNJAB,30.5882941,75.8650148
148020,Sandhaur S.O,Sangrur,PUNJAB,30.5403153,75.737149
148021,Ahmedgarh s.O,Sangrur,PUNJAB,30.6533337,75.841775
148022,Amargarh S.O (Sangrur),Sangrur,PUNJAB,30.4807769,76.01598
148023,Malerkotla S.O,Sangrur,PUNJAB,30.5157567,75.9230976
148024,Dhuri S.O,Sangrur,PUNJAB,30.4152794,75.8301537
148025,Sherpur S.O,Sangrur,PUNJAB,30.4449407,75.6906241
148026,Bhawanigarh S.O,Sangrur,PUNJAB,30.2548735,76.01598
148027,Pakki Khanauri S.O,Sangrur,PUNJAB,29.7943223,76.0507949
148028,Sunam S.O,Sangrur,PUNJAB,30.0938248,75.7836589
148029,Cheema S.O,Sangrur,PUNJAB,30.0735434,75.7022567
148030,Chhajli S.O,Sangrur,PUNJAB,30.0359842,75.7720328
148031,Lehragaga S.O,Sangrur,PUNJAB,29.9178222,75.8301537
148033,Moonak S.O,Sangrur,PUNJAB,29.8372736,75.9230976
148034,Ladda S.O,Sangrur,PUNJAB,30.3324188,75.795284
148035,Dirba S.O,Sangrur,PUNJAB,29.9984083,75.946324
148100,Tallewal S.O,Barnala,PUNJAB,30.5089262,75.4577775
148101,Barnala S.O,Barnala,PUNJAB,30.4392642,75.5393155
148102,Bhadaur S.O (Sangrur),Sangrur,PUNJAB,30.4479275,75.3178952
148103,Shaina S.O,Barnala,PUNJAB,30.4061896,75.4461256
148104,Mehal Kalan S.O,Barnala,PUNJAB,30.5194643,75.5509602
148105,Dhanaula S.O,Barnala,PUNJAB,30.2487913,75.5509602
148106,Longowal S.O,Sangrur,PUNJAB,30.2140241,75.6440842
148107,Handiaya S.O,Ludhiana,PUNJAB,30.2834499,75.4577775
148108,Tapa S.O,Sangrur,PUNJAB,30.310696,75.3995089
148109,Sanghera S.O,Barnala,PUNJAB,30.3970193,75.6149893
151001,Bathinda H.O,Bathinda,PUNJAB,30.1738414,74.8974925
151002,Gndtp Bathinda S.O,Bathinda,PUNJAB,30.2486027,74.8624092
151003,Nfl Bathinda S.O,Bathinda,PUNJAB,30.2645297,74.9501034
151004,Bathinda Cantt S.O,Bathinda,PUNJAB,30.219957,75.0026972
151005,Bathinda City S.O,Bathinda,PUNJAB,30.1969101,74.9501034
151101,Bhucho Mandi S.O,Bathinda,PUNJAB,30.1956303,75.0844757
151102,Nathana S.O,Bathinda,PUNJAB,30.3254607,75.0377502
151103,Rampura Phul S.O,Bathinda,PUNJAB,30.2622415,75.2712393
151104,Phul S.O,Bathinda,PUNJAB,30.3398315,75.2595731
151105,Mehraj S.O,Bathinda,PUNJAB,30.3065483,75.1662121
151106,Bhai Rupa S.O,Bathinda,PUNJAB,30.4246033,75.2128996
151108,Salabatpura S.O,Bathinda,PUNJAB,30.5065688,75.1428632
151111,Ghtp Lehra Mohabbat S.O,Bathinda,PUNJAB,30.2389036,75.1662121
151201,Goniana Mandi S.O,Bathinda,PUNJAB,30.3035384,74.8507131
151202,Jaitu S.O,Faridkot,PUNJAB,30.4330505,74.8039205
151203,Faridkot H.O,Faridkot,PUNJAB,30.6915141,74.7102958
151204,Kotkapura S.O,Faridkot,PUNJAB,30.5230003,74.8039205
151205,Baja Khana S.O,Faridkot,PUNJAB,30.410089,74.9910112
151206,Bhagta Bhai S.O,Bathinda,PUNJAB,30.466021,75.0844757
151207,Panj Grain Kalan S.O,Faridkot,PUNJAB,30.6689222,74.8974925
151208,Bargari S.O,Faridkot,PUNJAB,30.5395994,74.9442585
151209,Sandhwan S.O,Faridkot,PUNJAB,30.5974728,74.7688173
151210,Alamwala S.O,Muktsar,PUNJAB,30.26754646,74.41353313
151211,Mandi Killianwali S.O,Muktsar,PUNJAB,29.9503442,74.6283316
151212,Sadiq S.O,Faridkot,PUNJAB,30.7194376,74.5697617
151213,Harindra Nagar (Faridkot) S.O,Faridkot,PUNJAB,30.66399926,74.75922018
151301,Raman S.O,Bathinda,PUNJAB,29.9590825,74.9910112
151302,Talwandi Sabo S.O,Bathinda,PUNJAB,29.9300692,75.1311874
151401,Sangat S.O,Bathinda,PUNJAB,30.0671203,74.7571147
151501,Bareta S.O,Mansa,PUNJAB,29.8572185,75.6906241
151502,Budhlada S.O,Mansa,PUNJAB,29.9827566,75.5975296
151503,Boha S.O,Mansa,PUNJAB,29.8417614,75.5509602
151504,Bhikhi S.O,Mansa,PUNJAB,30.1132488,75.5509602
151505,Mansa S.O (Mansa),Mansa,PUNJAB,29.9366599,75.3878525
151506,Jhunir S.O,Mansa,PUNJAB,29.7703545,75.3178952
151507,Sardulgarh S.O,Mansa,PUNJAB,29.6391919,75.2595731
151508,Bhaini Bagha S.O,Mansa,PUNJAB,30.0623273,75.3995089
151509,Maur Mandi S.O,Mansa,PUNJAB,30.1214948,75.2245693
151510,Joga S.O,Mansa,PUNJAB,30.1726376,75.3761952
152001,Ferozepur H.O,Firozpur,PUNJAB,30.9205165,74.6107628
152002,Ferozepur City S.O,Firozpur,PUNJAB,30.9939928,74.6166192
152003,Canal Colony Ferozepur S.O,Firozpur,PUNJAB,30.8665626,74.5814773
152004,S.B.S Engg Colleger Ferozpeur S.O,Firozpur,PUNJAB,30.8779071,74.6751731
152005,Sherkhan Wala S.O,Firozpur,PUNJAB,30.9661889,74.7571147
152021,Mallanwala S.O,Firozpur,PUNJAB,31.0613765,74.8039205
152022,Guruharsahai S.O,Firozpur,PUNJAB,30.651718,74.3822058
152023,Mamdot S.O,Firozpur,PUNJAB,30.8815534,74.4291135
152024,Jalalabad (W) S.O,Firozpur,PUNJAB,30.634377,74.2414092
152025,Bariwala S.O,Muktsar,PUNJAB,30.4612784,74.663464
152026,Muktsar S.O,Muktsar,PUNJAB,30.5595078,74.5463282
152031,Doda S.O (Muktsar),Muktsar,PUNJAB,30.3713271,74.663464
152032,Rupana S.O,Muktsar,PUNJAB,30.3937255,74.4760088
152033,Mandi Amin Ganj S.O,Firozpur,PUNJAB,30.5055765,74.2883536
152101,Gidderbaha S.O,Muktsar,PUNJAB,30.2109704,74.6400432
152107,Malout S.O,Muktsar,PUNJAB,30.1687569,74.4760088
152112,Ram Nagar S.O (Muktsar),Muktsar,PUNJAB,30.3037834,74.4760088
152113,Lambi S.O,Muktsar,PUNJAB,29.9997527,74.5697617
152114,Tappa Khera S.O,Muktsar,PUNJAB,30.0941616,74.511172
152115,Bhaika Khera S.O,Muktsar,PUNJAB,30.0730064,74.4291135
152116,Abohar S.O,Firozpur,PUNJAB,30.0501858,74.2414092
152117,Balluana S.O,Firozpur,PUNJAB,30.1742687,74.310856
152121,Khui Khera S.O,Firozpur,PUNJAB,30.3027243,74.1005044
152122,Nihal Khera S.O,Firozpur,PUNJAB,30.2469351,74.1710583
152123,Fazilka S.O,Firozpur,PUNJAB,30.4120793,74.07701
152124,Arniwala Sheikh Subhan S.O,Firozpur,PUNJAB,30.3650687,74.2414092
152128,Khuiyan Server S.O,Firozpur,PUNJAB,30.1620411,74.0535126
152132,Maujgarh S.O,Firozpur,PUNJAB,30.0408173,73.9830029
160001,New Sectt Chandigarh S.O,Chandigarh,CHANDIGARH,30.7535003,76.8057776
160002,Ind Area Chandigarh S.O,Chandigarh,CHANDIGARH,30.6896247,76.7884713
160003,Aerodrome S.O,Chandigarh,CHANDIGARH,30.6738734,76.8000091
160004,Airforce Highground S.O,Chandigarh,CHANDIGARH,30.6582706,76.7855866
160009,Sector 9 (Chandigarh) S.O,Chandigarh,CHANDIGARH,30.7466677,76.7942403
160011,Sector 11( Chandigarh) S.O,Chandigarh,CHANDIGARH,30.7573593,76.7884713
160012,Sector 12 (Chandigarh) S.O,Chandigarh,CHANDIGARH,30.7680494,76.782702
160014,Sector 14 (Chandigarh) S.O,Chandigarh,CHANDIGARH,30.7776783,76.7394237
160015,Sector 15 Chandigarh S.O,Chandigarh,CHANDIGARH,30.7505253,76.7769324
160017,Chandigarh G.P.O.,Chandigarh,CHANDIGARH,30.7398339,76.782702
160018,Sector 18 (Chandigarh) S.O,Chandigarh,CHANDIGARH,30.7332254,76.787029
160019,Sector 19 (Chandigarh) S.O,Chandigarh,CHANDIGARH,30.7303302,76.8000091
160020,Sector 20 (Chandigarh) S.O,Chandigarh,CHANDIGARH,30.7213417,76.7812596
160022,Sector 22 (Chandigarh) S.O,Chandigarh,CHANDIGARH,30.7267591,76.7653924
160023,Sector 23 ( Chandigarh) S.O,Chandigarh,CHANDIGARH,30.7396066,76.766835
160025,Maloya Colony S.O,Chandigarh,CHANDIGARH,30.7527177,76.7163359
160030,Sector 30 (Chandigarh) S.O,Chandigarh,CHANDIGARH,30.7122069,76.7884713
160036,Sector 36 (Chandigarh) S.O,Chandigarh,CHANDIGARH,30.7325393,76.7394237
160047,Sector 47 Chandigarh S.O,Chandigarh,CHANDIGARH,30.6998681,76.750966
160055,Chandigarh Sector 55 S.O,Rupnagar,PUNJAB,30.7264274,76.7076768
160059,Chandigarh Sector 59 S.O,Rupnagar,PUNJAB,30.7191317,76.720616
160062,Chandigarh Sector 62 S.O,Rupnagar,PUNJAB,30.6836658,76.7307663
160071,Chandigarh Sector 71 S.O,Rupnagar,PUNJAB,30.7038528,76.7076768
160101,Manimajra S.O,Chandigarh,CHANDIGARH,30.7182961,76.8201976
160102,Mauli Jagran S.O,Chandigarh,CHANDIGARH,30.6844199,76.8201976
160103,Naya Gaon S.O (Mohali),Mohali,PUNJAB,30.707137,76.7174871
160104,Dhakaoli S.O,Mohali,PUNJAB,30.6427858,76.854799
171001,Shimla G.P.O.,Shimla,HIMACHAL PRADESH,31.1011641,77.1743983
171002,Shimla East S.O,Shimla,HIMACHAL PRADESH,31.0831046,77.1628959
171003,AGPO S.O,Shimla,HIMACHAL PRADESH,31.1369056,77.1657716
171004,Ambedkarchowk S.O,Shimla,HIMACHAL PRADESH,31.0875788,77.1513924
171005,Summerhill S.O,Shimla,HIMACHAL PRADESH,31.122158,77.1312586
171006,Sanjauli S.O,Shimla,HIMACHAL PRADESH,31.0953165,77.2002745
171007,Mashobra S.O,Shimla,HIMACHAL PRADESH,31.1601624,77.2290193
171008,Jutogh S.O,Shimla,HIMACHAL PRADESH,31.1066236,77.1168753
171009,Kasumpti S.O,Shimla,HIMACHAL PRADESH,31.0405529,77.1600201
171010,Tara Devi S.O,Shimla,HIMACHAL PRADESH,31.0658281,77.1312586
171011,Totu S.O,Shimla,HIMACHAL PRADESH,31.0988492,77.067959
171012,Dhalli S.O,Shimla,HIMACHAL PRADESH,31.0723282,77.2520101
171013,Mehli S.O,Shimla,HIMACHAL PRADESH,31.06981465,77.18433668
171018,Basanatpur S.O,Shimla,HIMACHAL PRADESH,31.2254073,77.2060241
171019,Jalog S.O,Shimla,HIMACHAL PRADESH,31.2516158,77.355413
171102,Darla S.O,Solan,HIMACHAL PRADESH,31.2399074,76.9066829
171103,Dhami S.O,Shimla,HIMACHAL PRADESH,31.178839,77.0794705
171201,Theog S.O,Shimla,HIMACHAL PRADESH,31.1085865,77.3898602
171202,Kotkhai S.O,Shimla,HIMACHAL PRADESH,31.1018258,77.5504779
171203,Tikkar S.O,Shimla,HIMACHAL PRADESH,31.1987215,77.6192447
171204,Kiari S.O,Shimla,HIMACHAL PRADESH,31.1672294,77.5275463
171205,Jubbal S.O,Shimla,HIMACHAL PRADESH,31.1129631,77.665066
171206,Hatkoti S.O,Shimla,HIMACHAL PRADESH,31.0664644,77.7680952
171207,Rohru S.O,Shimla,HIMACHAL PRADESH,31.2018372,77.7680952
171208,Chirgaon S.O (Shimla),Shimla,HIMACHAL PRADESH,31.2890898,77.973865
171209,Fagu S.O (Shimla),Shimla,HIMACHAL PRADESH,31.0566565,77.3209555
171210,Nerwa S.O,Shimla,HIMACHAL PRADESH,30.901759,77.6994197
171211,Chopal S.O,Shimla,HIMACHAL PRADESH,30.9043613,77.4931403
171212,Matiana S.O,Shimla,HIMACHAL PRADESH,31.1988519,77.4053955
171213,Narkanda S.O,Shimla,HIMACHAL PRADESH,31.2262196,77.4400975
171214,Jangla S.O,Shimla,HIMACHAL PRADESH,31.3109471,77.8481628
171215,Mandhole S.O,Shimla,HIMACHAL PRADESH,31.3344538,77.4529868
171216,Mandal S.O (Shimla),Shimla,HIMACHAL PRADESH,31.1283619,77.8252923
171217,Kupvi S.O,Shimla,HIMACHAL PRADESH,30.8330856,77.5734048
171218,Junga S.O,Shimla,HIMACHAL PRADESH,31.0069736,77.2749964
171219,Shoghi S.O,Shimla,HIMACHAL PRADESH,31.0409637,77.1082444
171220,Chhaila S.O,Shimla,HIMACHAL PRADESH,31.1559395,77.4128193
171221,Kawar S.O,Shimla,HIMACHAL PRADESH,31.2815418,78.133638
171222,Sandhu S.O,Shimla,HIMACHAL PRADESH,31.156455,77.3611549
171223,Arhal S.O,Shimla,HIMACHAL PRADESH,31.2319008,77.6707924
171224,Summer Kot S.O,Shimla,HIMACHAL PRADESH,31.3224848,77.7337628
171225,Baghi S.O (Shimla),Shimla,HIMACHAL PRADESH,31.2246949,77.5390127
171226,Balag S.O,Shimla,HIMACHAL PRADESH,30.9901804,77.4472495
171301,Sunni Bhajji S.O,Shimla,HIMACHAL PRADESH,31.2223199,77.1197521
172001,Rampur Bushahr H.O,Shimla,HIMACHAL PRADESH,31.3991826,77.5963271
172002,Arsu S.O,Kullu,HIMACHAL PRADESH,31.5240014,77.6077865
172021,Nankhari S.O,Shimla,HIMACHAL PRADESH,31.3068995,77.5734048
172022,Nogli S.O,Shimla,HIMACHAL PRADESH,31.3820966,77.7680952
172023,Nirmand S.O,Kullu,HIMACHAL PRADESH,31.4149339,77.5275463
172024,Kingal S.O,Shimla,HIMACHAL PRADESH,31.3287677,77.3956004
172025,Dalash S.O,Kullu,HIMACHAL PRADESH,31.3833772,77.4357739
172026,Anni S.O,Kullu,HIMACHAL PRADESH,31.4811415,77.4013403
172027,Baragaon S.O (Shimla),Shimla,HIMACHAL PRADESH,31.3315393,77.3668965
172028,Delath S.O,Shimla,HIMACHAL PRADESH,31.33336,77.55621
172029,Kumarsain S.O,Shimla,HIMACHAL PRADESH,31.2933601,77.4357739
172030,Thanedhar S.O,Shimla,HIMACHAL PRADESH,31.3378515,77.4874049
172031,Kotgarh S.O,Shimla,HIMACHAL PRADESH,31.2798863,77.5275463
172032,Chowai S.O,Kullu,HIMACHAL PRADESH,31.5026171,77.5046101
172033,Nither S.O,Kullu,HIMACHAL PRADESH,31.3676782,77.5046101
172034,Bonda S.O,Shimla,HIMACHAL PRADESH,31.5338685,77.8252923
172101,Jeori S.O,Shimla,HIMACHAL PRADESH,31.6070327,77.7680952
172102,Sarahan BSR S.O,Shimla,HIMACHAL PRADESH,31.4888811,77.8252923
172103,Nichar S.O,Kinnaur,HIMACHAL PRADESH,31.6738972,77.9967043
172104,Tapri S.O,Kinnaur,HIMACHAL PRADESH,31.4939833,77.9967043
172105,Karcham S.O,Kinnaur,HIMACHAL PRADESH,31.4661031,78.1792434
172106,Sangla S.O,Kinnaur,HIMACHAL PRADESH,31.3108666,78.4524591
172107,Reckong Peo H.O,Kinnaur,HIMACHAL PRADESH,31.4829512,78.3614672
172108,Kalpa S.O,Kinnaur,HIMACHAL PRADESH,31.6750021,78.2476146
172109,Moorang S.O,Kinnaur,HIMACHAL PRADESH,31.4380046,78.6114999
172110,Speelo S.O,Kinnaur,HIMACHAL PRADESH,31.7979272,78.3614672
172111,Pooh S.O,Kinnaur,HIMACHAL PRADESH,31.7696176,78.5433701
172112,Liyo S.O,Kinnaur,HIMACHAL PRADESH,31.8881486,78.6114999
172113,Tabo S.O,Lahul & Spiti,HIMACHAL PRADESH,32.2218687,78.3387066
172114,Kaza S.O,Lahul & Spiti,HIMACHAL PRADESH,32.4151975,78.0195387
172115,Bhaba Nagar S.O,Kinnaur,HIMACHAL PRADESH,31.660795,77.8595963
172116,Ribba S.O,Kinnaur,HIMACHAL PRADESH,31.5730326,78.3614672
172117,Sagnam S.O,Lahul & Spiti,HIMACHAL PRADESH,31.9186342,77.973865
172118,Katgaon S.O,Kinnaur,HIMACHAL PRADESH,31.5926039,78.0880129
172201,Jhakri S.O,Shimla,HIMACHAL PRADESH,31.4778332,77.7108686
173001,Nahan H.O,Sirmaur,HIMACHAL PRADESH,30.5946436,77.3324425
173021,Majra S.O (Sirmaur),Sirmaur,HIMACHAL PRADESH,30.4620018,77.4816693
173022,Dadahu S.O,Sirmaur,HIMACHAL PRADESH,30.6330057,77.4931403
173023,Sangrah S.O,Sirmaur,HIMACHAL PRADESH,30.7235225,77.4931403
173024,Sarahan S.O,Sirmaur,HIMACHAL PRADESH,30.7821812,77.1715228
173025,Paonta Sahib S.O,Sirmaur,HIMACHAL PRADESH,30.5191347,77.7223162
173026,Kw Bhood S.O,Sirmaur,HIMACHAL PRADESH,30.6098431,77.2002745
173027,Shillai S.O,Sirmaur,HIMACHAL PRADESH,30.7412552,77.6765184
173028,Rajban S.O,Sirmaur,HIMACHAL PRADESH,30.5527866,77.6593394
173029,Sataun S.O,Sirmaur,HIMACHAL PRADESH,30.6010157,77.6307018
173030,Kala Amb S.O,Sirmaur,HIMACHAL PRADESH,30.5481844,77.2060241
173032,Haripurdhar,Sirmaur,HIMACHAL PRADESH,30.76859383,77.52566273
173101,Rajgarh (Siramur) S.O,Sirmaur,HIMACHAL PRADESH,30.8862736,77.3094674
173104,Nohra S.O,Sirmaur,HIMACHAL PRADESH,30.8049828,77.4013403
173201,Garkhal S.O,Solan,HIMACHAL PRADESH,30.9424313,76.860565
173202,Sanawar S.O,Solan,HIMACHAL PRADESH,30.9021478,76.9902276
173204,Kasauli S.O,Solan,HIMACHAL PRADESH,30.9293418,76.9527836
173205,Baddi S.O,Solan,HIMACHAL PRADESH,30.9702876,76.8028933
173206,Subathu S.O,Solan,HIMACHAL PRADESH,31.0016831,76.9988669
173207,Kunihar S.O,Solan,HIMACHAL PRADESH,31.089459,76.9758274
173208,Arki S.O,Solan,HIMACHAL PRADESH,31.1321361,76.9527836
173209,Dharampur S.O (Solan),Solan,HIMACHAL PRADESH,30.8963236,77.0161436
173210,Dagshai S.O,Solan,HIMACHAL PRADESH,30.8710389,77.0449327
173211,Saproon S.O,Solan,HIMACHAL PRADESH,30.9111094,77.0506896
173212,Solan H.O,Solan,HIMACHAL PRADESH,30.905647,77.1082444
173213,Chambaghat S.O,Solan,HIMACHAL PRADESH,30.943386,77.0909809
173214,Solan Brewery S.O,Solan,HIMACHAL PRADESH,30.920407,77.142764
173215,Kandaghat S.O,Solan,HIMACHAL PRADESH,30.9869225,77.1312586
173217,Chail S.O (Solan),Solan,HIMACHAL PRADESH,30.9673939,77.2175223
173218,Diggal S.O,Solan,HIMACHAL PRADESH,31.0799942,76.8836261
173220,Parwanoo S.O,Solan,HIMACHAL PRADESH,30.8640187,76.9758274
173221,Domehar S.O,Solan,HIMACHAL PRADESH,31.0261974,77.0737149
173222,Mamlig S.O,Solan,HIMACHAL PRADESH,31.0427044,77.0420541
173223,Oachghat S.O,Solan,HIMACHAL PRADESH,30.8826465,77.1600201
173225,Jubbar S.O,Solan,HIMACHAL PRADESH,31.0349471,76.8836261
173229,Kumarhatti S.O,Solan,HIMACHAL PRADESH,30.818098,77.0794705
173230,Nauni S.O,Solan,HIMACHAL PRADESH,31.2194893,76.9815877
173233,Patta S.O,Solan,HIMACHAL PRADESH,30.9697136,76.9066829
173234,Waknaghat S.O,Solan,HIMACHAL PRADESH,30.9935469,77.0852258
173235,Dhundan S.O,Solan,HIMACHAL PRADESH,31.1721203,76.958545
174001,Bilaspur (Bilaspur- HP) H.O,Bilaspur (HP),HIMACHAL PRADESH,31.3355166,76.745195
174002,Bassi Kehloor S.O,Bilaspur (HP),HIMACHAL PRADESH,31.3335782,76.514138
174003,Harlog S.O,Bilaspur (HP),HIMACHAL PRADESH,31.4277512,76.7682775
174004,Kandraur S.O,Bilaspur (HP),HIMACHAL PRADESH,31.3878593,76.7625073
174005,Raghunath Pura S.O,Bilaspur (HP),HIMACHAL PRADESH,31.2929932,76.7682775
174011,Swarghat S.O,Bilaspur (HP),HIMACHAL PRADESH,31.2407984,76.6990172
174012,Panjgain S.O,Bilaspur (HP),HIMACHAL PRADESH,31.3938798,76.8201976
174013,Barmana S.O,Bilaspur (HP),HIMACHAL PRADESH,31.3637863,76.854799
174015,Behal S.O,Bilaspur (HP),HIMACHAL PRADESH,31.2385243,76.6239423
174017,Jejwin S.O,Bilaspur (HP),HIMACHAL PRADESH,31.3009206,76.6297189
174021,Ghumarwin S.O,Bilaspur (HP),HIMACHAL PRADESH,31.4702174,76.745195
174023,Dadhol S.O,Bilaspur (HP),HIMACHAL PRADESH,31.5053528,76.6528225
174024,Auhar S.O,Bilaspur (HP),HIMACHAL PRADESH,31.3830217,76.7163359
174026,Kuthera BLP S.O,Bilaspur (HP),HIMACHAL PRADESH,31.4940141,76.7047904
174027,Lehri Sarail S.O,Bilaspur (HP),HIMACHAL PRADESH,31.3286418,76.4678766
174028,Hatwar S.O,Bilaspur (HP),HIMACHAL PRADESH,31.5774881,76.6990172
174029,Berthin S.O,Bilaspur (HP),HIMACHAL PRADESH,31.4156193,76.6528225
174030,Tallai S.O,Bilaspur (HP),HIMACHAL PRADESH,31.4233394,76.514138
174031,Jhandutta S.O,Bilaspur (HP),HIMACHAL PRADESH,31.3632858,76.6354952
174032,Namhol S.O,Bilaspur (HP),HIMACHAL PRADESH,31.2528441,76.8144298
174033,Jukhala S.O,Bilaspur (HP),HIMACHAL PRADESH,31.3025907,76.860565
174034,Geharwin S.O,Bilaspur (HP),HIMACHAL PRADESH,31.3731607,76.675922
174035,Kalol S.O (Bilaspur (HP))),Bilaspur (HP),HIMACHAL PRADESH,31.3832917,76.6123884
174036,NTPC Jamthal S.O,Bilaspur (HP),HIMACHAL PRADESH,31.4094152,76.8346161
174101,Nalagarh S.O,Solan,HIMACHAL PRADESH,31.0459605,76.6643728
174102,Ramshahar S.O,Solan,HIMACHAL PRADESH,31.1006244,76.7567368
174103,Barotiwala S.O,Solan,HIMACHAL PRADESH,30.8973367,76.860565
174201,Bhakra Dam S.O,Bilaspur (HP),HIMACHAL PRADESH,31.418395,76.4678766
174301,Santokhgarh S.O,Una,HIMACHAL PRADESH,31.3535764,76.2826675
174302,Dhussara S.O,Una,HIMACHAL PRADESH,31.5476889,76.2131474
174303,Una H.O,Una,HIMACHAL PRADESH,31.4880812,76.2826675
174304,Bani S.O (Hamirpur(HP)),Hamirpur(HP),HIMACHAL PRADESH,31.5360805,76.4939006
174305,Barsar H.O,Hamirpur(HP),HIMACHAL PRADESH,31.5080798,76.4678766
174306,Dehlan S.O,Una,HIMACHAL PRADESH,31.4482874,76.3289941
174307,Bangana S.O,Una,HIMACHAL PRADESH,31.6076004,76.3521514
174308,Lathiani S.O,Una,HIMACHAL PRADESH,31.5404502,76.4042404
174309,Bahina S.O,Hamirpur(HP),HIMACHAL PRADESH,31.4956021,76.5083562
174310,Naina Devi S.O,Bilaspur (HP),HIMACHAL PRADESH,31.2935856,76.5603828
174311,Salauni S.O,Hamirpur(HP),HIMACHAL PRADESH,31.57651,76.5314817
174312,Jaure Amb S.O,Hamirpur(HP),HIMACHAL PRADESH,31.5553896,76.4389549
174314,Chowki Maniar S.O,Una,HIMACHAL PRADESH,31.6048566,76.1986595
174315,Mehatpur S.O (Una),Una,HIMACHAL PRADESH,31.3959623,76.3116235
174316,Bhera S.O,Una,HIMACHAL PRADESH,31.572496,76.1841701
174317,Bhadsali S.O,Una,HIMACHAL PRADESH,31.4860507,76.1870681
174319,Marwari S.O,Una,HIMACHAL PRADESH,31.7615815,75.96170029
174320,Talmehra S.O,Una,HIMACHAL PRADESH,31.6671799,76.2826675
174321,Thanakalan S.O,Una,HIMACHAL PRADESH,31.5404229,76.3521514
174405,Hareta S.O,Hamirpur(HP),HIMACHAL PRADESH,31.597937,76.458097
174503,Pubowal S.O,Una,HIMACHAL PRADESH,31.3708836,76.1841701
174505,Dhaned S.O,Hamirpur(HP),HIMACHAL PRADESH,31.6312678,76.5199195
175001,Mandi H.O,Mandi,HIMACHAL PRADESH,31.6962683,76.9239727
175002,Bhojpur S.O (Mandi),Mandi,HIMACHAL PRADESH,31.733457,76.958545
175003,Kotli S.O,Mandi,HIMACHAL PRADESH,31.7760517,76.8836261
175004,Bhambla S.O,Mandi,HIMACHAL PRADESH,31.7179197,77.0794705
175005,Kataula S.O,Mandi,HIMACHAL PRADESH,31.7903985,77.0219019
175006,Gagal S.O,Mandi,HIMACHAL PRADESH,31.6063746,76.9758274
175007,Gopalpur S.O (Mandi),Mandi,HIMACHAL PRADESH,31.5661429,76.750966
175008,Ner Chowk S.O,Mandi,HIMACHAL PRADESH,31.5906162,76.8778612
175009,Tattapani S.O,Mandi,HIMACHAL PRADESH,31.3061083,77.1139984
175010,Churag S.O,Mandi,HIMACHAL PRADESH,31.3282248,77.1657716
175011,Karsog S.O,Mandi,HIMACHAL PRADESH,31.3774338,77.2635038
175012,Padhar S.O,Mandi,HIMACHAL PRADESH,31.8875395,76.9873477
175013,Barot S.O,Mandi,HIMACHAL PRADESH,32.0120682,76.8951551
175014,Drubbal S.O,Mandi,HIMACHAL PRADESH,31.8731251,76.8490328
175015,Joginder Nagar S.O,Mandi,HIMACHAL PRADESH,32.0023796,76.8028933
175016,Ladbharole S.O,Mandi,HIMACHAL PRADESH,31.91809,76.745195
175017,Slapper S.O,Mandi,HIMACHAL PRADESH,31.3972404,76.9066829
175018,Sunder Nagar-1 S.O,Mandi,HIMACHAL PRADESH,31.4746338,76.8951551
175019,Sunder Nagar Town Ship H.O,Mandi,HIMACHAL PRADESH,31.5381363,76.9124465
175021,Bhangrotu S.O,Mandi,HIMACHAL PRADESH,31.6290354,76.9239727
175023,Rewalsar S.O,Mandi,HIMACHAL PRADESH,31.612023,76.8144298
175024,Sarkaghat S.O,Mandi,HIMACHAL PRADESH,31.6719773,76.745195
175025,Sajao Pipluso S.O,Mandi,HIMACHAL PRADESH,31.7590987,76.7221082
175026,Tihra S.O,Mandi,HIMACHAL PRADESH,31.7741365,76.6528225
175027,Baggi S.O,Mandi,HIMACHAL PRADESH,31.5367012,76.9527836
175028,Chachiot S.O,Mandi,HIMACHAL PRADESH,31.5461868,77.0449327
175029,Gohar S.O,Mandi,HIMACHAL PRADESH,31.6158527,77.067959
175030,Dehar S.O,Mandi,HIMACHAL PRADESH,31.4488048,76.8086617
175031,Jaidevi S.O,Mandi,HIMACHAL PRADESH,31.4788442,77.0449327
175032,Chauntra S.O,Mandi,HIMACHAL PRADESH,32.0050054,76.7221082
175033,Baldwara S.O,Mandi,HIMACHAL PRADESH,31.5647727,76.7913558
175034,Samaila S.O,Mandi,HIMACHAL PRADESH,31.5199202,76.7913558
175035,Bagsaid S.O,Mandi,HIMACHAL PRADESH,31.6275945,77.1830243
175036,Gurkotha S.O,Mandi,HIMACHAL PRADESH,31.5695946,76.8374995
175037,Cholthra S.O,Mandi,HIMACHAL PRADESH,31.7280704,76.6932438
175038,Nihri S.O,Mandi,HIMACHAL PRADESH,31.3943245,76.9873477
175039,Jachh S.O,Mandi,HIMACHAL PRADESH,31.5346558,77.0967357
175040,Dharampur S.O (Mandi),Mandi,HIMACHAL PRADESH,31.7887729,76.7913558
175042,Rakhoh S.O,Mandi,HIMACHAL PRADESH,31.7069048,76.7047904
175046,Pangna S.O,Mandi,HIMACHAL PRADESH,31.4084456,77.1255055
175047,Janjehli S.O,Mandi,HIMACHAL PRADESH,31.5122759,77.2635038
175048,Thunag S.O,Mandi,HIMACHAL PRADESH,31.5378255,77.1830243
175049,Jamni S.O,Mandi,HIMACHAL PRADESH,31.7016445,76.8144298
175050,Marhi S.O,Mandi,HIMACHAL PRADESH,31.8213255,76.675922
175051,Seoh S.O,Mandi,HIMACHAL PRADESH,31.8635183,76.7047904
175052,Saigaloo S.O,Mandi,HIMACHAL PRADESH,31.7088733,76.8836261
175101,Kullu H.O,Kullu,HIMACHAL PRADESH,31.961527,77.1082444
175102,Bhutti S.O,Kullu,HIMACHAL PRADESH,31.9494128,77.0449327
175103,Bahang S.O,Kullu,HIMACHAL PRADESH,32.3431783,77.1830243
175104,Larenkelo S.O,Kullu,HIMACHAL PRADESH,32.2780587,77.3094674
175105,Jaree S.O,Kullu,HIMACHAL PRADESH,32.0346941,77.3324425
175106,Balichowki S.O,Mandi,HIMACHAL PRADESH,31.6570173,77.2520101
175121,Aut S.O,Mandi,HIMACHAL PRADESH,31.7768279,77.2175223
175122,Larji S.O,Kullu,HIMACHAL PRADESH,31.726617,77.2749964
175123,Banjar S.O,Kullu,HIMACHAL PRADESH,31.694648,77.5160788
175124,Pandoh S.O,Mandi,HIMACHAL PRADESH,31.6636138,76.9873477
175125,Bhuntar S.O,Kullu,HIMACHAL PRADESH,31.911185,77.2175223
175126,Shamshi S.O,Kullu,HIMACHAL PRADESH,31.8846818,77.067959
175128,Raison S.O,Kullu,HIMACHAL PRADESH,32.0312176,77.0794705
175129,Katrain S.O,Kullu,HIMACHAL PRADESH,32.0835001,77.0449327
175130,Naggar S.O,Kullu,HIMACHAL PRADESH,32.0900763,77.2175223
175131,Manali S.O (Kullu),Kullu,HIMACHAL PRADESH,32.3038146,77.1255055
175132,Keylong H.O,Lahul & Spiti,HIMACHAL PRADESH,32.7478902,77.3324425
175133,Lote S.O (Lahul & Spiti),Lahul & Spiti,HIMACHAL PRADESH,32.6406476,76.9412601
175134,Sainj S.O,Kullu,HIMACHAL PRADESH,31.9726933,77.6077865
175136,Haripur S.O (Kullu),Kullu,HIMACHAL PRADESH,32.1841067,77.2635038
175138,Babeli S.O,Kullu,HIMACHAL PRADESH,31.9959683,77.1715228
175139,Jahalman S.O,Lahul & Spiti,HIMACHAL PRADESH,32.7689575,76.8951551
175140,Gondhla S.O,Lahul & Spiti,HIMACHAL PRADESH,32.5394906,77.4701972
175141,Garsa S.O,Kullu,HIMACHAL PRADESH,31.8703245,77.3668965
175142,Udaipur S.O,Lahul & Spiti,HIMACHAL PRADESH,32.8675096,76.7798172
175143,Jagatsukh S.O,Kullu,HIMACHAL PRADESH,32.1652178,77.0794705
176001,Kangra H.O,Kangra,HIMACHAL PRADESH,32.113695,76.2826675
176021,Bharmar S.O,Kangra,HIMACHAL PRADESH,32.1963807,75.9753516
176022,Rehan S.O,Kangra,HIMACHAL PRADESH,32.1391156,75.911483
176023,Jawali S.O,Kangra,HIMACHAL PRADESH,32.1076636,76.0275859
176025,Dhameta S.O,Kangra,HIMACHAL PRADESH,32.0402465,75.9230976
176026,Lanj S.O,Kangra,HIMACHAL PRADESH,32.0786252,76.1667807
176027,Nagrota Surian S.O,Kangra,HIMACHAL PRADESH,32.0263311,76.097201
176028,Haripur S.O (Kangra),Kangra,HIMACHAL PRADESH,31.9645986,76.1435915
176029,Ranital S.O (Kangra),Kangra,HIMACHAL PRADESH,31.9773848,76.2594981
176030,Khundian S.O,Kangra,HIMACHAL PRADESH,31.9256116,76.3984537
176031,Jawalamukhi S.O,Kangra,HIMACHAL PRADESH,31.8957235,76.3289941
176032,Tihri S.O,Kangra,HIMACHAL PRADESH,31.8337586,76.3753046
176033,Guler S.O,Kangra,HIMACHAL PRADESH,32.0005123,76.1406925
176036,Kohala S.O,Kangra,HIMACHAL PRADESH,31.8063766,76.3289941
176037,Sunhi S.O,Kangra,HIMACHAL PRADESH,32.0270748,76.3058328
176038,Daulatpur S.O (Kangra),Kangra,HIMACHAL PRADESH,32.0691239,76.2826675
176039,Chakmoh S.O,Hamirpur(HP),HIMACHAL PRADESH,31.4407098,76.5719414
176040,Bijhari S.O,Hamirpur(HP),HIMACHAL PRADESH,31.5403798,76.5603828
176041,Bhota S.O,Hamirpur(HP),HIMACHAL PRADESH,31.6125799,76.5546031
176042,Mair S.O,Hamirpur(HP),HIMACHAL PRADESH,31.5814417,76.5777203
176043,Ladraur S.O,Hamirpur(HP),HIMACHAL PRADESH,31.5856967,76.6441591
176044,Mundkhar S.O,Hamirpur(HP),HIMACHAL PRADESH,31.6024522,76.6701475
176045,Bhoranj S.O,Hamirpur(HP),HIMACHAL PRADESH,31.6224111,76.647047
176047,Nagrota Bagwan S.O,Kangra,HIMACHAL PRADESH,32.120164,76.3926668
176048,Jahu S.O,Hamirpur(HP),HIMACHAL PRADESH,31.6173145,76.7047904
176049,Maharal S.O,Hamirpur(HP),HIMACHAL PRADESH,31.5452962,76.606611
176051,Raja Ka Talab S.O,Kangra,HIMACHAL PRADESH,32.2058509,75.911483
176052,Yol Camp S.O,Kangra,HIMACHAL PRADESH,32.1659901,76.4042404
176053,Fatehpur S.O (Kangra),Kangra,HIMACHAL PRADESH,32.1658707,76.3521514
176054,Baroh S.O,Kangra,HIMACHAL PRADESH,31.9626869,76.3289941
176055,Thill S.O,Kangra,HIMACHAL PRADESH,31.9702552,76.3984537
176056,Sunehar S.O,Kangra,HIMACHAL PRADESH,32.0792629,76.3753046
176057,Dari S.O,Kangra,HIMACHAL PRADESH,32.2377381,76.3984537
176058,Rey S.O,Kangra,HIMACHAL PRADESH,32.1958792,76.5257007
176059,Chachian S.O,Kangra,HIMACHAL PRADESH,32.137601,76.4505243
176060,Darang S.O,Kangra,HIMACHAL PRADESH,32.0892483,76.4158129
176061,Palampur H.O,Kangra,HIMACHAL PRADESH,32.1191198,76.5372625
176062,Auc Palampur S.O,Kangra,HIMACHAL PRADESH,32.0931135,76.5546031
176063,Majherna S.O,Kangra,HIMACHAL PRADESH,32.0373447,76.606611
176064,Paraur S.O,Kangra,HIMACHAL PRADESH,32.0707203,76.4505243
176065,Rajhoon S.O,Kangra,HIMACHAL PRADESH,32.0483812,76.4244916
176066,Ghallour S.O,Kangra,HIMACHAL PRADESH,32.0919761,75.8882508
176071,Bhullanaso S.O,Kangra,HIMACHAL PRADESH,31.9790425,76.6354952
176073,Bairhgat S.O,Kangra,HIMACHAL PRADESH,31.9070884,76.4852265
176075,Duhak S.O,Kangra,HIMACHAL PRADESH,31.8611617,76.4736602
176076,Bhawana S.O,Kangra,HIMACHAL PRADESH,31.992702,76.606611
176077,Bir S.O (Kangra),Kangra,HIMACHAL PRADESH,32.0459135,76.7394237
176081,Taragarh (Kangra) S.O,Kangra,HIMACHAL PRADESH,32.0819694,76.606611
176082,Alampur S.O (Kangra),Kangra,HIMACHAL PRADESH,31.8648989,76.5083562
176083,Bhawarna S.O,Kangra,HIMACHAL PRADESH,32.04227,76.4967919
176084,Noura S.O,Kangra,HIMACHAL PRADESH,31.9690702,76.4389549
176085,Sullah S.O,Kangra,HIMACHAL PRADESH,32.0620756,76.4736602
176086,Khera S.O,Kangra,HIMACHAL PRADESH,32.0346661,76.3753046
176087,Pahra S.O,Kangra,HIMACHAL PRADESH,32.0224533,76.5199195
176088,Chadhiar S.O,Kangra,HIMACHAL PRADESH,31.9306342,76.6528225
176089,Molag S.O,Kangra,HIMACHAL PRADESH,31.8958596,76.6672602
176090,Sandhole S.O,Mandi,HIMACHAL PRADESH,31.8846496,76.6932438
176091,Sanghole S.O,Kangra,HIMACHAL PRADESH,31.8797405,76.647047
176092,Daroh S.O,Kangra,HIMACHAL PRADESH,31.9666531,76.5199195
176093,Malkher S.O,Kangra,HIMACHAL PRADESH,31.9517504,76.4852265
176094,Jalag S.O,Kangra,HIMACHAL PRADESH,31.9430903,76.5603828
176095,Jaisinghpur S.O (Kangra),Kangra,HIMACHAL PRADESH,31.9195017,76.6008334
176096,Lambagaon S.O,Kangra,HIMACHAL PRADESH,31.9033809,76.5546031
176097,Marera S.O,Kangra,HIMACHAL PRADESH,31.8996559,76.5199195
176098,Lahru S.O,Kangra,HIMACHAL PRADESH,32.1904776,76.0217831
176101,Dheera S.O,Kangra,HIMACHAL PRADESH,32.0025454,76.4389549
176102,Maranda S.O,Kangra,HIMACHAL PRADESH,32.0584111,76.5430429
176103,Panchrukhi S.O,Kangra,HIMACHAL PRADESH,32.0497422,76.5661622
176107,Thural S.O,Kangra,HIMACHAL PRADESH,31.924421,76.4389549
176108,Bhaleth S.O,Hamirpur(HP),HIMACHAL PRADESH,31.8146055,76.482335
176109,Jangal Beri S.O,Hamirpur(HP),HIMACHAL PRADESH,31.8785463,76.583499
176110,Sujanpur Tira S.O,Hamirpur(HP),HIMACHAL PRADESH,31.8040536,76.514138
176111,Patlander S.O,Hamirpur(HP),HIMACHAL PRADESH,31.7866504,76.5603828
176115,Paprola S.O,Kangra,HIMACHAL PRADESH,31.8611211,76.4215988
176125,Baijnath S.O (Kangra),Kangra,HIMACHAL PRADESH,32.3045224,76.9182097
176128,Chobin S.O,Kangra,HIMACHAL PRADESH,31.982736,76.6701475
176200,Bhadwar S.O,Kangra,HIMACHAL PRADESH,32.3470816,75.9811564
176201,Jassur S.O,Kangra,HIMACHAL PRADESH,32.2618256,75.7888319
176202,Nurpur S.O,Kangra,HIMACHAL PRADESH,32.299664,75.9056753
176203,Ladori S.O,Kangra,HIMACHAL PRADESH,32.3573558,75.949227
176204,Gangtha S.O,Kangra,HIMACHAL PRADESH,32.2237655,75.825741
176205,Kotla S.O (Kangra),Kangra,HIMACHAL PRADESH,32.260804,76.0043731
176206,Shahpur (Kangra) S.O,Kangra,HIMACHAL PRADESH,32.1552931,76.1551866
176207,Sihunta S.O,Chamba,HIMACHAL PRADESH,32.3280871,76.1088001
176208,Rait S.O,Kangra,HIMACHAL PRADESH,32.1777735,76.2073525
176209,Gaggal S.O,Kangra,HIMACHAL PRADESH,32.1545894,76.3000419
176210,Harchakian S.O,Kangra,HIMACHAL PRADESH,32.1154423,76.097201
176211,Saliali S.O,Kangra,HIMACHAL PRADESH,32.3463447,75.8766333
176213,Hpbose Dharamsala S.O,Kangra,HIMACHAL PRADESH,32.1692034,76.2305308
176214,Tiara S.O,Kangra,HIMACHAL PRADESH,32.1308697,76.2363248
176215,Dharamsala H.O,Kangra,HIMACHAL PRADESH,32.2140742,76.3347838
176216,Dharamsala Cantt S.O,Kangra,HIMACHAL PRADESH,32.1805176,76.2826675
176217,Charri S.O,Kangra,HIMACHAL PRADESH,32.2224898,76.2594981
176218,Khaniara S.O,Kangra,HIMACHAL PRADESH,32.2990822,76.247912
176219,Mcleodganj S.O,Kangra,HIMACHAL PRADESH,32.2746467,76.3289941
176225,Tilokpur S.O (Kangra),Kangra,HIMACHAL PRADESH,32.2267294,76.097201
176301,Bakloh S.O,Chamba,HIMACHAL PRADESH,32.4945614,75.911483
176302,Chowari S.O,Chamba,HIMACHAL PRADESH,32.4065304,76.01598
176303,Banikhet S.O,Chamba,HIMACHAL PRADESH,32.5610759,75.911483
176304,Dalhousie S.O,Chamba,HIMACHAL PRADESH,32.5494446,76.0043731
176305,Dalhousie Cantt S.O,Chamba,HIMACHAL PRADESH,32.5313158,75.9666439
176306,Bathri-bazar S.O,Chamba,HIMACHAL PRADESH,32.5937811,76.0043731
176308,Bhalei S.O,Chamba,HIMACHAL PRADESH,32.6354685,75.9811564
176309,Garola S.O,Chamba,HIMACHAL PRADESH,32.3444103,76.6643728
176310,Chamba H.O,Chamba,HIMACHAL PRADESH,32.4959506,76.1203982
176311,Mehla S.O,Chamba,HIMACHAL PRADESH,32.4324439,76.247912
176312,Sundla S.O,Chamba,HIMACHAL PRADESH,32.6068505,76.1203982
176313,Kakira S.O,Chamba,HIMACHAL PRADESH,32.4633334,76.0275859
176314,Sultanpur S.O (Chamba),Chamba,HIMACHAL PRADESH,32.5794686,76.0739999
176315,Bharmour S.O,Chamba,HIMACHAL PRADESH,32.4926332,76.5950555
176316,Bhanjraru-Tissa S.O,Chamba,HIMACHAL PRADESH,32.8952941,76.2247366
176317,Surangani S.O,Chamba,HIMACHAL PRADESH,32.7296702,76.0798006
176318,Hardaspura S.O,Chamba,HIMACHAL PRADESH,32.6151389,76.2942507
176319,Pukhri S.O,Chamba,HIMACHAL PRADESH,32.6934982,76.2015572
176320,Salooni S.O,Chamba,HIMACHAL PRADESH,32.7611914,76.01598
176321,Nakror S.O,Chamba,HIMACHAL PRADESH,32.7872537,76.247912
176323,Killar Pangi S.O,Chamba,HIMACHAL PRADESH,32.9753361,76.5488232
176324,Gehra S.O,Chamba,HIMACHAL PRADESH,32.3244567,76.4794435
176325,Samleu S.O,Chamba,HIMACHAL PRADESH,32.6080395,75.9347113
176401,Indora S.O,Kangra,HIMACHAL PRADESH,32.1081604,75.737149
176402,Kandrori S.O,Kangra,HIMACHAL PRADESH,32.1819927,75.7022567
176403,Damtal S.O,Kangra,HIMACHAL PRADESH,32.2362139,75.6906241
176501,Sansarpur Terrace S.O,Kangra,HIMACHAL PRADESH,31.8992935,75.9579358
176502,Ghamroor S.O,Kangra,HIMACHAL PRADESH,31.9464963,75.9811564
176601,Dulehar S.O,Una,HIMACHAL PRADESH,31.6934244,76.23310069
177001,Hamirpur H.O,Hamirpur(HP),HIMACHAL PRADESH,31.6673472,76.4910093
177005,Govt Degree College Hamirpur S.O,Hamirpur(HP),HIMACHAL PRADESH,31.7096132,76.5199195
177006,Kashmir S.O,Hamirpur(HP),HIMACHAL PRADESH,31.6287744,76.3926668
177007,Chabutra S.O,Hamirpur(HP),HIMACHAL PRADESH,31.7618141,76.4852265
177020,Kuthera S.O,Hamirpur(HP),HIMACHAL PRADESH,31.629114,76.4586401
177021,Bagwara S.O,Hamirpur(HP),HIMACHAL PRADESH,31.7244003,76.6585978
177022,Uhal S.O,Hamirpur(HP),HIMACHAL PRADESH,31.791588,76.606611
177023,Tauni Devi S.O,Hamirpur(HP),HIMACHAL PRADESH,31.73068,76.6123884
177024,Bhareri S.O,Hamirpur(HP),HIMACHAL PRADESH,31.6447096,76.6990172
177025,Kanjian S.O,Hamirpur(HP),HIMACHAL PRADESH,31.6821598,76.6297189
177026,Galore S.O,Hamirpur(HP),HIMACHAL PRADESH,31.6144675,76.4313068
177027,Kot S.O (Hamirpur(HP)),Hamirpur(HP),HIMACHAL PRADESH,31.7108376,76.557493
177028,Kakkar S.O,Hamirpur(HP),HIMACHAL PRADESH,31.8338428,76.583499
177029,Lambloo S.O,Hamirpur(HP),HIMACHAL PRADESH,31.6809883,76.5661622
177031,Raipur S.O (Una),Una,HIMACHAL PRADESH,31.455788,76.3984537
177033,Nadaun S.O,Hamirpur(HP),HIMACHAL PRADESH,31.7616766,76.3289941
177034,Pirsaluhi S.O,Kangra,HIMACHAL PRADESH,31.7342701,76.2826675
177038,Sera S.O,Hamirpur(HP),HIMACHAL PRADESH,31.733227,76.5314817
177039,Sohari S.O,Una,HIMACHAL PRADESH,31.5839967,76.3926668
177040,Kangoo S.O,Hamirpur(HP),HIMACHAL PRADESH,31.7058378,76.5892774
177041,Dhaneta S.O,Hamirpur(HP),HIMACHAL PRADESH,31.6548728,76.3753046
177042,Jalari S.O,Hamirpur(HP),HIMACHAL PRADESH,31.7406421,76.3926668
177043,Rakkar S.O,Kangra,HIMACHAL PRADESH,31.7764408,76.2594981
177044,Bara S.O (Hamirpur(HP)),Hamirpur(HP),HIMACHAL PRADESH,31.7828777,76.3955603
177045,Rail S.O,Hamirpur(HP),HIMACHAL PRADESH,31.7667589,76.4273844
177048,Rangas S.O,Hamirpur(HP),HIMACHAL PRADESH,31.714588,76.4620928
177101,Dehra H.O,Kangra,HIMACHAL PRADESH,31.9053492,76.2131474
177103,Dhaliara S.O,Kangra,HIMACHAL PRADESH,31.8332662,76.1667807
177104,Nehran Pukhar S.O,Kangra,HIMACHAL PRADESH,31.8607033,76.2131474
177105,Thore S.O,Kangra,HIMACHAL PRADESH,31.9223497,76.1145993
177106,Dadasiba S.O,Kangra,HIMACHAL PRADESH,31.9319827,76.0507949
177107,Pragpur S.O,Kangra,HIMACHAL PRADESH,31.8085433,76.1957618
177108,Garli S.O,Kangra,HIMACHAL PRADESH,31.8136364,76.2421185
177109,Bharwain S.O,Una,HIMACHAL PRADESH,31.8180563,76.0798006
177110,Chintpurni S.O,Una,HIMACHAL PRADESH,31.8281395,76.1203982
177111,Qusba Kotla S.O,Kangra,HIMACHAL PRADESH,31.8847805,76.0275859
177112,Tipri S.O,Kangra,HIMACHAL PRADESH,31.8676366,76.0739999
177113,Chanour S.O,Kangra,HIMACHAL PRADESH,31.8927342,76.1493891
177114,Bankhandi S.O,Kangra,HIMACHAL PRADESH,31.9660695,76.2073525
177117,Muhal S.O,Kangra,HIMACHAL PRADESH,31.8683317,76.2826675
177118,Bahanwin S.O,Hamirpur(HP),HIMACHAL PRADESH,31.7046285,76.4215988
177119,Bumbloo S.O,Hamirpur(HP),HIMACHAL PRADESH,31.7816845,76.4620928
177201,Gagret S.O,Una,HIMACHAL PRADESH,31.6416738,76.0507949
177202,Mubarikpur S.O,Una,HIMACHAL PRADESH,31.7050788,76.068199
177203,Amb S.O,Una,HIMACHAL PRADESH,31.6642247,76.1030007
177204,Daulatpurchowk S.O,Una,HIMACHAL PRADESH,31.7980865,76.0507949
177205,Ambota S.O,Una,HIMACHAL PRADESH,31.6801529,76.044993
177206,Oel S.O (Una),Una,HIMACHAL PRADESH,31.755775,76.0217831
177207,Pandogha S.O,Una,HIMACHAL PRADESH,31.5202184,76.1667807
177208,Panjawar S.O,Una,HIMACHAL PRADESH,31.5797077,76.097201
177209,Saloh S.O,Una,HIMACHAL PRADESH,31.4530262,76.1667807
177210,Nehri Nauranga S.O,Una,HIMACHAL PRADESH,31.7538065,76.1551866
177211,Thathal S.O,Una,HIMACHAL PRADESH,31.6544864,76.1667807
177212,Ghanari S.O,Una,HIMACHAL PRADESH,31.6999219,76.0217831
177213,Gondpur Banera S.O,Una,HIMACHAL PRADESH,31.7336548,76.0739999
177219,Sunkali S.O,Una,HIMACHAL PRADESH,31.5975242,76.2594981
177220,Haroli S.O,Una,HIMACHAL PRADESH,31.4132794,76.2131474
177301,Basaral S.O,Hamirpur(HP),HIMACHAL PRADESH,31.7033298,76.3579401
177401,Didwin S.O,Hamirpur(HP),HIMACHAL PRADESH,31.6262437,76.5777203
177501,Parol S.O,Hamirpur(HP),HIMACHAL PRADESH,31.6498695,76.5892774
177601,Awah Devi S.O,Hamirpur(HP),HIMACHAL PRADESH,31.6870594,76.675922
180001,Jammu H.O,Jammu,JAMMU & KASHMIR,32.7384409,74.8653331
180002,Talab Tillo S.O,Jammu,JAMMU & KASHMIR,32.7357929,74.8214693
180003,Jammu Cantt S.O,Jammu,JAMMU & KASHMIR,32.690686,74.7688173
180004,Gandhinagar H.O,Jammu,JAMMU & KASHMIR,32.6974359,74.8682569
180005,Rehari Mohalla S.O,Jammu,JAMMU & KASHMIR,32.7473084,74.847789
180006,New University Campus S.O,Jammu,JAMMU & KASHMIR,32.7178197,74.8770282
180007,Janipur S.O,Jammu,JAMMU & KASHMIR,32.7636115,74.8682569
180009,SKUAST(CHATHA) S.O,Jammu,JAMMU & KASHMIR,32.65953,74.8068454
180010,Gangyal S.O,Jammu,JAMMU & KASHMIR,32.6633683,74.8828754
180011,Sainik Colony S.O,Jammu,JAMMU & KASHMIR,32.688772,74.9325683
180012,Railway Station S.O,Jammu,JAMMU & KASHMIR,32.7031898,74.8814136
180013,Roopnagar Jammu Tawi S.O,Jammu,JAMMU & KASHMIR,32.7842202,74.8565613
180015,Chani Himat S.O,Jammu,JAMMU & KASHMIR,32.6923922,74.8945692
180016,Vinaik Bazar S.O,Jammu,JAMMU & KASHMIR,32.7259726,74.8536372
180017,Majeen S.O,Jammu,JAMMU & KASHMIR,32.7290156,74.9910112
180018,Udheywala S.O,Jammu,JAMMU & KASHMIR,32.7465724,74.8083078
180019,Sidhra Housing Colony S.O,Jammu,JAMMU & KASHMIR,32.7578582,74.8887224
180020,Trikuta Nagar S.O,Jammu,JAMMU & KASHMIR,32.6792043,74.8770282
181101,Miran Sahib S.O,Jammu,JAMMU & KASHMIR,32.630262,74.8156199
181102,R.S.Pura S.O,Jammu,JAMMU & KASHMIR,32.6407574,74.7220017
181111,Dablehar S.O,Jammu,JAMMU & KASHMIR,32.5803273,74.7688173
181121,Paloura S.O,Jammu,JAMMU & KASHMIR,32.7513798,74.8360918
181122,Bhalwal S.O,Jammu,JAMMU & KASHMIR,32.8823791,74.8039205
181123,Bantalab S.O,Jammu,JAMMU & KASHMIR,32.8067212,74.8156199
181124,Bsf Camp Paloura S.O,Jammu,JAMMU & KASHMIR,32.7554494,74.8243939
181131,Arnia S.O,Jammu,JAMMU & KASHMIR,32.5140563,74.7688173
181132,Bishnah Adda S.O,Jammu,JAMMU & KASHMIR,32.6139391,74.8624092
181133,Bari Brahmna I/complex S.O,Jammu,JAMMU & KASHMIR,32.6225354,74.9325683
181141,Ramgarh S.O (Jammu),Jammu,JAMMU & KASHMIR,32.5024183,74.9442585
181143,Gurah Salathia S.O,Jammu,JAMMU & KASHMIR,32.6339282,75.0260667
181145,Purmandal S.O,Jammu,JAMMU & KASHMIR,32.6757883,74.9617924
181152,Bathindi S.O,Jammu,JAMMU & KASHMIR,32.7156424,74.9267229
181201,Akhnoor S.O,Jammu,JAMMU & KASHMIR,32.9587802,74.7102958
181202,Jourian S.O,Jammu,JAMMU & KASHMIR,32.8656314,74.5814773
181203,Khour S.O,Jammu,JAMMU & KASHMIR,32.938822,74.4642861
181204,Pallanwala S.O,Jammu,JAMMU & KASHMIR,32.8918667,74.4408385
181205,Muthi S.O,Jammu,JAMMU & KASHMIR,32.7657518,74.8185446
181206,Dumana S.O,Jammu,JAMMU & KASHMIR,32.738558,74.7102958
181207,Pargwal S.O,Jammu,JAMMU & KASHMIR,32.8025214,74.6049061
181221,Kandoli Nagrota S.O,Jammu,JAMMU & KASHMIR,32.8498702,74.8974925
181224,Dansal S.O,Jammu,JAMMU & KASHMIR,32.8382324,75.0727956
182101,Udhampur H.O,Udhampur,JAMMU & KASHMIR,32.8908181,75.1428632
182104,PTC Udhampur S.O,Udhampur,JAMMU & KASHMIR,32.8999966,75.1049137
182121,Garhi S.O (Udhampur),Udhampur,JAMMU & KASHMIR,32.960854,75.0844757
182122,Ramnagar S.O (Udhampur),Udhampur,JAMMU & KASHMIR,32.7739893,75.3645369
182124,Jaganoo S.O,Udhampur,JAMMU & KASHMIR,32.8896503,75.2245693
182125,Mir S.O,Udhampur,JAMMU & KASHMIR,33.0450022,75.1428632
182126,Roan S.O,Udhampur,JAMMU & KASHMIR,32.801417,75.2245693
182127,Majalta S.O,Udhampur,JAMMU & KASHMIR,32.7131079,75.2245693
182128,Majouri S.O,Udhampur,JAMMU & KASHMIR,32.8981658,75.4810786
182141,Chenani S.O,Udhampur,JAMMU & KASHMIR,32.983419,75.2712393
182142,Kud S.O,Udhampur,JAMMU & KASHMIR,33.0590975,75.2595731
182143,Batote S.O,Doda,JAMMU & KASHMIR,33.1595178,75.2712393
182144,Ramban S.O,Doda,JAMMU & KASHMIR,33.2820829,75.0143824
182145,Ramsu S.O,Doda,JAMMU & KASHMIR,33.350501,75.3062326
182146,Banihal S.O,Doda,JAMMU & KASHMIR,33.4117631,75.1778853
182147,Kastigarh S.O,Doda,JAMMU & KASHMIR,33.1886672,75.422819
182148,Chanderkot S.O,Doda,JAMMU & KASHMIR,33.2530653,75.3178952
182161,Mantalai S.O,Udhampur,JAMMU & KASHMIR,32.98773,75.3995089
182201,Khellani S.O,Doda,JAMMU & KASHMIR,33.1543296,75.5975296
182202,Doda S.O (Doda),Doda,JAMMU & KASHMIR,33.2808408,75.5509602
182203,Thathri S.O,Doda,JAMMU & KASHMIR,33.0652269,75.9695465
182204,Kishtwar S.O,Doda,JAMMU & KASHMIR,33.4421982,75.9927652
182206,Dul Hasti Project S.O,Doda,JAMMU & KASHMIR,33.4771633,75.632447
182221,Udrana S.O,Doda,JAMMU & KASHMIR,33.0438444,75.7836589
182222,Bhaderwah S.O,Doda,JAMMU & KASHMIR,32.9889284,75.6906241
182301,Katra S.O (Udhampur),Udhampur,JAMMU & KASHMIR,33.0317562,74.9442585
182311,Reasi S.O,Udhampur,JAMMU & KASHMIR,33.125459,74.9910112
182312,Jyotipuram S.O,Udhampur,JAMMU & KASHMIR,33.117699,74.8390162
182313,Arnas S.O,Udhampur,JAMMU & KASHMIR,33.18497322,74.81886853
182315,Mahore S.O (Udhampur),Udhampur,JAMMU & KASHMIR,33.4343347,74.8273184
182320,SMVDU S.O,Reasi,JAMMU & KASHMIR,32.9494528,74.9910112
184101,Kathua H.O,Kathua,JAMMU & KASHMIR,32.3793306,75.5131117
184102,I/e Kathua S.O,Kathua,JAMMU & KASHMIR,32.338082,75.5160235
184104,Mini Sectt Kathua S.O,Kathua,JAMMU & KASHMIR,32.4419484,75.5509602
184120,Vijaypur S.O,Jammu,JAMMU & KASHMIR,32.5619569,74.9793243
184121,Samba S.O,Jammu,JAMMU & KASHMIR,32.613504,75.1311874
184141,Ghagwal S.O,Kathua,JAMMU & KASHMIR,32.5362645,75.2245693
184142,Hiranagar S.O,Kathua,JAMMU & KASHMIR,32.487896,75.2829046
184143,Barwal S.O,Kathua,JAMMU & KASHMIR,32.4753571,75.4577775
184144,Dialachak S.O,Kathua,JAMMU & KASHMIR,32.5529228,75.3645369
184145,Rajpura S.O (Kathua),Kathua,JAMMU & KASHMIR,32.454615,75.1895576
184148,Sanjimore S.O,Kathua,JAMMU & KASHMIR,32.4145378,75.3178952
184151,Parole S.O,Kathua,JAMMU & KASHMIR,32.3493437,75.422819
184152,Lakhanpur S.O (Kathua),Kathua,JAMMU & KASHMIR,32.4430384,75.6557206
184201,Basoli S.O,Kathua,JAMMU & KASHMIR,32.5770157,75.7604058
184202,Mahanpur S.O,Kathua,JAMMU & KASHMIR,32.5705799,75.6091696
184203,Bhaddu S.O,Kathua,JAMMU & KASHMIR,32.6579112,75.5043761
184204,Billawar S.O,Kathua,JAMMU & KASHMIR,32.6742403,75.6440842
184205,Ramkot S.O (Kathua),Kathua,JAMMU & KASHMIR,32.6261962,75.329557
184206,Bani S.O (Kathua),Kathua,JAMMU & KASHMIR,32.7647775,75.8533954
185101,Poonch S.O,Poonch,JAMMU & KASHMIR,33.7561542,74.1005044
185102,Mandi S.O,Poonch,JAMMU & KASHMIR,33.7365612,74.4525627
185121,Samote S.O,Poonch,JAMMU & KASHMIR,33.6874403,74.2414092
185131,Rajouri H.O,Rajauri,JAMMU & KASHMIR,33.3817121,74.2414092
185132,Jawaharnagar S.O (Rajauri),Rajauri,JAMMU & KASHMIR,33.4556511,74.4760088
185135,Darhal Malkan S.O,Rajauri,JAMMU & KASHMIR,33.4809463,74.4173877
185151,Naushera S.O,Rajauri,JAMMU & KASHMIR,33.2941842,74.2414092
185152,Lamberi S.O,Rajauri,JAMMU & KASHMIR,33.286481,74.5228916
185153,Sunderbani S.O,Rajauri,JAMMU & KASHMIR,33.0611595,74.4760088
185154,Chowki Choura S.O,Jammu,JAMMU & KASHMIR,32.9851361,74.5697617
185155,Bhawani S.O,Rajauri,JAMMU & KASHMIR,33.0810738,74.2883536
185156,Kangri S.O,Rajauri,JAMMU & KASHMIR,33.0616853,74.3939339
185201,Solki S.O,Rajauri,JAMMU & KASHMIR,33.1595008,74.7337069
185202,Kalakot S.O,Rajauri,JAMMU & KASHMIR,33.1808575,74.3822058
185203,Poni S.O,Udhampur,JAMMU & KASHMIR,33.0884422,74.6049061
185211,Dharamsal Mendhar S.O,Poonch,JAMMU & KASHMIR,33.6001884,74.2414092
185212,Thanamandi S.O,Rajauri,JAMMU & KASHMIR,33.5498869,74.3587473
185233,Budhal S.O,Rajauri,JAMMU & KASHMIR,33.3101407,74.7102958
185234,Baba Ghulam Shah Badshah University S.O,Rajauri,JAMMU & KASHMIR,33.392245,74.3440842
190001,Srinagar G.P.O.,Srinagar,JAMMU & KASHMIR,34.0826627,74.8624092
190002,S.R Gunj S.O,Srinagar,JAMMU & KASHMIR,34.1017525,74.7980705
190003,Rainawari S.O,Srinagar,JAMMU & KASHMIR,34.0953008,74.8331674
190004,Batwara S.O,Srinagar,JAMMU & KASHMIR,34.058261,74.8521752
190005,Sanat Nagar S.O,Budgam,JAMMU & KASHMIR,34.0256125,74.7980705
190006,Kashmir University S.O,Srinagar,JAMMU & KASHMIR,34.1232194,74.8390162
190007,Sk Airport S.O,Budgam,JAMMU & KASHMIR,33.9923639,74.7717429
190008,Jawahar Nagar S.O (Srinagar),Srinagar,JAMMU & KASHMIR,34.0611993,74.8214693
190009,New Secretariat Srinagar S.O,Srinagar,JAMMU & KASHMIR,34.0676528,74.7863698
190010,Karan Nagar S.O (Srinagar),Srinagar,JAMMU & KASHMIR,34.0870535,74.7892951
190011,Noushara S.O,Srinagar,JAMMU & KASHMIR,34.1234952,74.7980705
190012,Zainakote S.O,Srinagar,JAMMU & KASHMIR,34.108437,74.7220017
190014,Hyderpora S.O,Budgam,JAMMU & KASHMIR,34.0482483,74.7834445
190015,Natipora S.O,Budgam,JAMMU & KASHMIR,34.0362063,74.8390162
190017,Parimpora S.O,Srinagar,JAMMU & KASHMIR,34.1051023,74.7600404
190018,Bemina S.O,Srinagar,JAMMU & KASHMIR,34.0794,74.7717429
190019,Bagh Mehtab S.O,Srinagar,JAMMU & KASHMIR,34.0067921,74.8214693
190020,Bachpora S.O,Srinagar,JAMMU & KASHMIR,34.1497948,74.8126951
190021,Hamhama S.O,Budgam,JAMMU & KASHMIR,34.0141306,74.7717429
190023,Lal Bazar S.O,Srinagar,JAMMU & KASHMIR,34.1404012,74.8243939
190024,Zakoora S.O,Srinagar,JAMMU & KASHMIR,34.1699173,74.8214693
190025,Skuast S.O,Srinagar,JAMMU & KASHMIR,34.1446703,74.8799518
191101,Pantha Chowk S.O,Srinagar,JAMMU & KASHMIR,34.0497143,74.903339
191102,Wuyan S.O,Srinagar,JAMMU & KASHMIR,34.0352454,74.9617924
191103,Khrew S.O,Srinagar,JAMMU & KASHMIR,34.0616772,75.1311874
191111,Budgam S.O,Budgam,JAMMU & KASHMIR,34.0090786,74.7102958
191112,Char-sharief S.O,Budgam,JAMMU & KASHMIR,33.7852856,74.663464
191113,Chadoora S.O,Budgam,JAMMU & KASHMIR,33.9338085,74.8039205
191121,Brein S.O,Srinagar,JAMMU & KASHMIR,34.0726099,74.955948
191131,Tulmulla S.O,Srinagar,JAMMU & KASHMIR,34.1765986,74.7454112
191132,Rangreth S.O,Budgam,JAMMU & KASHMIR,34.0429429,74.7629661
191201,Ganderbal S.O,Srinagar,JAMMU & KASHMIR,34.2382988,74.8039205
191202,Kangan S.O,Srinagar,JAMMU & KASHMIR,34.3298401,75.0143824
191203,Sonamarg S.O,Srinagar,JAMMU & KASHMIR,34.1905432,75.294569
192101,Anantnag H.O,Ananthnag,JAMMU & KASHMIR,33.7002252,75.1195107
192121,Pampore S.O,Srinagar,JAMMU & KASHMIR,34.0014616,74.9091853
192122,Awantipora S.O,Pulwama,JAMMU & KASHMIR,33.9506491,75.0260667
192123,Tral S.O,Pulwama,JAMMU & KASHMIR,33.9802635,75.1778853
192124,Bijbehara S.O,Ananthnag,JAMMU & KASHMIR,33.8312993,75.1195107
192125,Martand S.O,Ananthnag,JAMMU & KASHMIR,33.8340137,75.4111644
192126,Phalgam S.O,Ananthnag,JAMMU & KASHMIR,34.0634689,75.5043761
192129,Seer Kanil Gund S.O,Ananthnag,JAMMU & KASHMIR,33.7753062,75.2420722
192201,Achabal S.O,Ananthnag,JAMMU & KASHMIR,33.7448467,75.3062326
192202,Kokarnag S.O,Ananthnag,JAMMU & KASHMIR,33.5905673,75.3878525
192210,Dialgam S.O,Ananthnag,JAMMU & KASHMIR,33.6840791,75.1662121
192211,Dooru S.O,Ananthnag,JAMMU & KASHMIR,33.6241452,75.2128996
192212,Verinaag S.O,Ananthnag,JAMMU & KASHMIR,33.479312,75.2829046
192221,Qazigund S.O,Ananthnag,JAMMU & KASHMIR,33.5375562,75.1311874
192230,Sheshanag (Sessional) S.O,Ananthnag,JAMMU & KASHMIR,34.145027,75.4577775
192231,Kulgam S.O,Pulwama,JAMMU & KASHMIR,33.6573767,75.0377502
192232,Yaripora S.O,Ananthnag,JAMMU & KASHMIR,33.7447971,75.0377502
192233,Damhal Hanji Pora S.O,Kulgam,JAMMU & KASHMIR,33.5962732,74.8974925
192301,Pulwama S.O,Pulwama,JAMMU & KASHMIR,33.8925152,74.9091853
192302,Hawl S.O,Pulwama,JAMMU & KASHMIR,33.7593643,74.8039205
192303,Shopin S.O,Pulwama,JAMMU & KASHMIR,33.6778764,74.8507131
192304,Kakapora S.O,Pulwama,JAMMU & KASHMIR,33.9466606,74.9501034
192305,Achan S.O,Ananthnag,JAMMU & KASHMIR,33.8263508,74.9910112
192306,Rajpora S.O,Pulwama,JAMMU & KASHMIR,33.8183154,74.8390162
192401,Srigufwaea S.O,Ananthnag,JAMMU & KASHMIR,33.8987336,75.2245693
193101,Baramulla H.O,Baramulla,JAMMU & KASHMIR,34.1781579,74.3352858
193103,Khawaja Bagh S.O,Baramulla,JAMMU & KASHMIR,34.2213709,74.4173877
193108,Kreeri S.O,Baramulla,JAMMU & KASHMIR,34.20140101,74.33437575
193121,Pattan S.O,Baramulla,JAMMU & KASHMIR,34.1650634,74.5697617
193122,Mohara S.O,Baramulla,JAMMU & KASHMIR,34.1535323,74.1474846
193123,Uri S.O,Baramulla,JAMMU & KASHMIR,34.0914749,74.006509
193201,Sopore S.O,Baramulla,JAMMU & KASHMIR,34.3544655,74.4408385
193202,Met Sopore S.O,Baramulla,JAMMU & KASHMIR,34.252163,74.4877306
193221,Handwara S.O,Kupwara,JAMMU & KASHMIR,34.3948912,74.1709702
193222,Kupwara S.O,Kupwara,JAMMU & KASHMIR,34.6788449,74.3587473
193223,Sogam S.O,Kupwara,JAMMU & KASHMIR,34.5182945,74.4525627
193224,Trehgam S.O,Kupwara,JAMMU & KASHMIR,34.5552932,74.07701
193225,Tangdhar S.O,Kupwara,JAMMU & KASHMIR,34.4252839,73.9124674
193301,Rohama S.O,Baramulla,JAMMU & KASHMIR,34.258764,74.2883536
193302,Langate S.O,Baramulla,JAMMU & KASHMIR,34.3485178,74.2707509
193303,Dangiwacha S.O,Baramulla,JAMMU & KASHMIR,34.3361233,74.3000878
